stop_id;stop_name;stop_desc;code_insee;lon;lat
1656;La Fourche;Avenue de Clichy;75117;2.32572522202;48.8874368425
5727652;RADIO FRANCE;104 AVENUE DU PRESIDENT KENNEDY;75116;2.28119812413;48.8531015853
5727674;VERSAILLES - CHARDON LAGACHE;186 AVENUE DE VERSAILLES;75116;2.26118468122;48.839204777
1724;Saint-Lazare;Rue de l' Arcade;75108;2.32418810077;48.8760678144
1731;Saint-Placide;Rue de Rennes;75106;2.32705511136;48.8470118402
1800;Poissonnière;Terre-plein face au 96/98 rue La Fayette;75110;2.34938142395;48.8773530953
6904253;SULLY - MORLAND;2 BIS QUAI DES CELESTINS;75104;2.3622178642;48.8514854286
2032;Charonne;188 boulevard Voltaire;75111;2.38503219333;48.8546420474
3685679;CHATEAU DE VINCENNES;13 AVENUE DE NOGENT;75112;2.44052459363;48.84406453
5761270;ROSA PARKS - CURIAL;105 RUE CURIAL;75119;2.37833712242;48.8963096483
2150;Charles Michels;36 rue des Entrepreneurs;75115;2.28563106588;48.8463629755
1843;Oberkampf;43 boulevard Voltaire;75111;2.36753701348;48.8649024159
7013374;PORTE DE FRANCE;1 RUE NICOLE-REINE LEPAUTE;75113;2.38173944207;48.8266021651
1927;Duroc;bd du Montparnasse;75107;2.31693731083;48.8468487689
7013397;GLACIERE - TOLBIAC;240 RUE DE TOLBIAC;75113;2.34212784589;48.8264755631
2253;Duroc;bd du Montparnasse;75107;2.31654234477;48.8469925009
2255;Edgar-Quinet;Place Edgar Quinet);75114;2.32640281522;48.8405677262
2107;Avron;Terre-plein face au 35 boulevard de Charonne;75111;2.39823914082;48.8511938192
5761428;PLACE HEBERT;19 RUE DE L'EVANGILE;75118;2.36308289502;48.8929886826
7013446;MICHEL-ANGE - AUTEUIL;51 RUE D'AUTEUIL;75116;2.26505313741;48.8478082535
3685789;CHATEAU DE VINCENNES;PISTE GARE ROUTIERE;75112;2.44079723454;48.8442170813
3686063;PORTE JAUNE;AV DE NOGENT;75112;2.46062407189;48.838778696
5761976;CHAUDRON - SAINT MARTIN;239 RUE DU FAUBOURG SAINT-MARTIN;75110;2.36645701484;48.8822751543
2314;Opéra;Théâtre National de l'Opéra;75109;2.33255448205;48.8705592165
2371;Nation;Terre-plein face au 3 place de la Nation;75112;2.3980040128;48.8481112316
5761980;CHATEAU LANDON;190 RUE LA FAYETTE;75110;2.36321308742;48.880801996
2472;Saint-Michel;Place Saint-Michel;75105;2.34399624109;48.8535999079
7275216;STRASBOURG - SAINT-DENIS;108 BOULEVARD DE SEBASTOPOL;75103;2.35386134295;48.8683382789
2517;Trocadéro;Place du Trocédéro;75116;2.28684037849;48.863089135
5770801;TRISTAN TZARA;FACE 41 RUE DE L'EVANGILE;75118;2.36613667569;48.8943090945
7137429;TRUFFAUT;25 RUE TRUFFAUT;75117;2.32192355669;48.8853963165
7275142;GARE DE L'EST;9 RUE DU 8 MAI 1945;75110;2.35821026231;48.8760666877
3343339;Boucicaut;Rue Félix Faure;75115;2.28792386733;48.8410253553
5770821;POTEAU - BELLIARD;131 RUE DAMREMONT;75118;2.3381542997;48.896415583
2282;Marx-Dormoy;4 rue de la Chapelle;75118;2.35979700867;48.8903740812
3442442;RUE BENARD;22 RUE DES PLANTES;75114;2.32399521165;48.8311395071
7176245;OPERA;4-6 RUE HALEVY;75109;2.33259527423;48.8714399763
7275442;VAL DE GRACE;131 BOULEVARD SAINT-MICHEL;75105;2.33805803995;48.8419522997
7176268;NAVIER;RUE NAVIER;75117;2.32265651741;48.8958125541
2453;Rue de la Pompe (Avenue Georges Mandel);56 avenue Georges Mandel;75116;2.27791676203;48.8642533844
7275433;ALESIA - GENERAL LECLERC;96 AVENUE DU GENERAL LECLERC;75114;2.32626955218;48.8268885881
2509;Villiers;Parc de Monceau;75117;2.31659676151;48.8813242939
7275437;DENFERT-ROCHEREAU - ARAGO;95 AVENUE DENFERT-ROCHEREAU;75114;2.33303422361;48.8347981256
7275439;HOPITAL SAINT-VINCENT DE PAUL;FACE 74 AVENUE DENFERT-ROCHEREAU;75114;2.33543026883;48.8372248336
2536;La Fourche;Avenue de Clichy;75117;2.32572522202;48.8874368425
2547;Barbès-Rochechouart;Boulevard de la Chapelle;75109;2.34953280365;48.8836801093
3343757;Ecole Militaire;Avenue Duquesne;75107;2.30543956054;48.8542609216
3343781;Saint-Sébastien-Froissart;Rue Froissart;75103;2.36726229502;48.8609749972
7275549;GARE SAINT-LAZARE;10 RUE DE ROME;75108;2.3255373687;48.8744232794
3442426;MUSEE DU LUXEMBOURG;4 RUE GUYNEMER;75106;2.33243393725;48.8482973915
7275550;GARE SAINT-LAZARE.;119-121 RUE SAINT-LAZARE;75108;2.32564615771;48.8753579691
3442435;GARE MONTPARNASSE;FACE 37 RUE DU DEPART;75114;2.32146004969;48.8412142766
3442460;HOPITAUX BROUSSAIS ET SAINT-JOSEPH;113 RUE DIDOT;75114;2.31536569264;48.8278487608
7275137;BARBES - ROCHECHOUART;5 BOULEVARD BARBES;75118;2.34928760975;48.884093547
7275290;ANDRE MAUROIS;RUE JOSEPH ET MARIE HACKIN;75116;2.27938625724;48.8779777589
3690059;ALBERT MARQUET;36-38 RUE VITRUVE;75120;2.40410351141;48.8576616375
7647710;BUTTE DU CHAPEAU ROUGE;13 BOULEVARD D'INDOCHINE;75119;2.39678007394;48.8851667434
3747908;GARE DE L'EST;15-17 RUE DU 8 MAI 1945;75110;2.35699768328;48.8762376533
3690070;PLAINE;2-4 RUE DE BUZENVAL;75120;2.40235026663;48.8498255461
7647720;CANAL SAINT-DENIS;FACE 137 BOULEVARD MACDONALD;75119;2.38026123552;48.8989691609
7647728;PORTE DE LA CHAPELLE;31 BOULEVARD NEY;75118;2.35926896399;48.8985794524
7647744;PORTE D'ASNIERES - MARGUERITE LONG;BOULEVARD BERTHIER;75117;2.30310084272;48.8898051274
3749660;YVONNE LE TAC;2 RUE YVONNE LE TAC;75118;2.34087955113;48.8841030867
7661347;PORTE DE CLIGNANCOURT - CROISSET;FACE 18 RUE FRANCIS DE CROISSET;75118;2.34483371676;48.8994260336
3749700;HOCHE - SAINT-HONORE;254 RUE DU FAUBOURG SAINT-HONORE;75108;2.30067024641;48.8771054403
7376185;MAIRIE DU 14E;178 AVENUE DU MAINE;75114;2.32496153863;48.8320922979
3749763;CHAPELLE - CAILLIE;6-8 BOULEVARD DE LA CHAPELLE;75118;2.36405987511;48.884567463
7676474;POISSONNIERS - COCTEAU;4 RUE JEAN COCTEAU;75118;2.35145862494;48.8996770676
3749776;RICHELIEU - DROUOT;103 RUE DE RICHELIEU;75102;2.33976150412;48.8715748508
7691432;CHARLES DE GAULLE - ETOILE;66 AVENUE HOCHE;75108;2.29661184552;48.8745607212
7275459;DENFERT-ROCHEREAU;2 PLACE DENFERT-ROCHEREAU;75114;2.33190432292;48.8338993207
3749897;ECOLE MILITAIRE;FACE 3 PLACE JOFFRE;75107;2.30496298487;48.8540900317
7714351;PORTE DE PASSY;44 BOULEVARD SUCHET;75116;2.26430474627;48.857073876
4997011;PLACE DE LA CHAPELLE;5 RUE MARX DORMOY;75118;2.35916783003;48.8850627604
7568961;HOPITAL ROBERT DEBRE 1;AVENUE DE LA PORT DU PRE SAINT GERVAIS;75119;2.4015151927;48.879286624
3764976;GARE D'AUSTERLITZ;5 BIS BOULEVARD DE L'HOPITAL;75113;2.36399734294;48.8426053893
5018202;SQUARE DES BATIGNOLLES;FACE 1 PLACE CHARLES FILLION;75117;2.31689441825;48.8867436461
3764995;PLACE DU 18 JUIN 1940 - RUE DU DEPART;10 RUE DU DEPART;75115;2.32376069187;48.8430300423
3765204;CLUNY;58-60 RUE DES ECOLES;75105;2.34336934362;48.8501307793
3687080;BIRAGUE;32 RUE SAINT-ANTOINE;75104;2.36533784904;48.8538664112
3764836;STADE CHARLETY - PORTE DE GENTILLY;6-10 BOULEVARD JOURDAN;75114;2.34371962142;48.8196448534
3687246;RUE DE JOUY;64 RUE FRANCOIS MIRON;75104;2.35754819186;48.8554767464
5018353;BANQUIER;50 AVENUE DES GOBELINS;75113;2.35348282456;48.8341769501
7647706;ADRIENNE BOLLAND;109 BOULEVARD MORTIER;75120;2.40840044235;48.8723355323
3687433;SAINT-PAUL;92 RUE SAINT-ANTOINE;75104;2.36201517035;48.8548108306
3765248;SAINT-GUILLAUME;183-185 BOULEVARD SAINT GERMAIN;75107;2.32947790015;48.8546244144
3687456;PISCINE DES TOURELLES;FACE 229 AVENUE GAMBETTA;75120;2.40570603684;48.8747546978
3765247;ALMA - MARCEAU;1 AVENUE DU PRESIDENT WILSON;75116;2.30051545299;48.8648107268
3765250;SEINE - BUCI;119 BOULEVARD SAINT GERMAIN;75106;2.33737725298;48.8527103404
7647718;PORTE DE LA VILLETTE - CITE DES SCIENCES ET DE L'INDUSTRIE;FACE 81 BOULEVARD MACDONALD;75119;2.38672123067;48.8976994704
3765255;GARE D'AUSTERLITZ;QUAI D'AUSTERLITZ;75113;2.3654956586;48.8435397467
7653668;PANTHEON;5-7 RUE SOUFFLOT;75105;2.34369574544;48.8465896898
3765295;DAUMESNIL - FELIX EBOUE;37 RUE TAINE;75112;2.39381348843;48.8390898155
3765302;OLYMPIADES;76 RUE DE TOLBIAC;75113;2.36664377799;48.827128133
3765288;LA PLAINE;33 RUE DES PYRENEES;75120;2.40627293973;48.8502727116
5018412;VANDREZANNE;52 AVENUE D'ITALIE;75113;2.35667971855;48.8276424719
5018433;ITALIE - TOLBIAC;55-57 AVENUE D'ITALIE;75113;2.357400703;48.8264110443
3764752;MAIRIE DU 14E;FACE 180 AVENUE DU MAINE;75114;2.32524741733;48.8321282775
3666565;GARE DU NORD;183 RUE DU FAUBOURG SAINT-DENIS;75110;2.35791253463;48.8811535357
7714269;JOUFFROY D'ABBANS - TOCQUEVILLE;21 RUE JOUFFROY D'ABBANS;75117;2.31021702107;48.8861042262
3764768;LA BOETIE - MIROMESNIL;20 BIS RUE LA BOETIE;75108;2.31636801333;48.8741164567
3687462;BELLEVILLE - MENILMONTANT;6 BD DE BELLEVILLE;75111;2.38308219428;48.8673420134
7714330;PONT DU GARIGLIANO - HOPITAL EUROPEEN GEORGES POMPIDOU;1 BOULEVARD DU GENERAL MARTIAL VALIN;75115;2.27008988865;48.8387068294
7714334;VERSAILLES - CHARDON LAGACHE;186 AVENUE DE VERSAILLES;75116;2.26118468122;48.839204777
3740337;ANVERS - SACRE COEUR;FACE 68 BOULEVARD DE ROCHECHOUART;75109;2.3442589351;48.8826739653
3926235;POTEAU - BELLIARD;131 RUE DAMREMONT;75118;2.3381542997;48.896415583
7714347;ALFRED CAPUS;118 BOULEVARD SUCHET;75116;2.25997002122;48.8502766238
3740544;RAFFET;51 BOULEVARD SUCHET;75116;2.26230783394;48.8534327204
7714358;LONGCHAMP;15 BOULEVARD LANNES;75116;2.27322574179;48.8683132446
7714378;GOURGAUD - PAUL ADAM;134 BOULEVARD BERTHIER;75117;2.29917712114;48.8879256143
7013399;RENE COTY;11 TER RUE D'ALESIA;75114;2.33567564152;48.8272755532
4651122;ALESIA - GENERAL LECLERC;83-85 AVENUE DU GENERAL LECLERC;75114;2.32675950056;48.82735599
3690072;VIGNOLES;FACE 43 RUE DES VIGNOLES;75120;2.40016296045;48.8541496944
7013438;VERSAILLES - CHARDON LAGACHE;98 RUE CHARDON-LAGACHE;75116;2.26217813355;48.8395379473
5121376;SEVRES - LECOURBE;FACE 4 BOULEVARD PASTEUR;75115;2.31131421077;48.8449602995
3811285;CAPUCINES - CAUMARTIN;39 BOULEVARD DES CAPUCINES;75102;2.32969355906;48.8700917281
3807625;SAINTE-ANNE - PETITS CHAMPS;40-42 RUE SAINTE ANNE;75102;2.33602862233;48.8671890492
7137423;COYSEVOX;235 RUE MARCADET;75118;2.33005829207;48.8924700082
7137430;MAIRIE DU 17E;18 RUE DES BATIGNOLLES;75117;2.3217057782;48.8845155403
7653717;PEREIRE - LE CHATELIER;173-175 RUE DE COURCELLES;75117;2.29646692218;48.8855880423
3716972;PONT DE L'ARCHEVECHE;FACE 55 QUAI DE LA TOURNELLE;75105;2.35163598257;48.8511007153
3748059;LEDRU ROLLIN - FAUBOURG SAINT-ANTOINE;90-92 RUE DU FAUBOURG SAINT ANTOINE;75112;2.37564583122;48.851311095
7153068;PORTE D'ITALIE - HELENE BOUCHER;AVENUE DE LA PORTE D'ITALIE;75113;2.35949356165;48.8184385986
3747907;LA FAYETTE - DUNKERQUE;33-35 RUE DE SAINT-QUENTIN;75110;2.35571806124;48.8794732784
3749738;LA FAYETTE - MAGENTA;142 RUE LA FAYETTE;75110;2.35522725955;48.8787184229
3749653;MONT CENIS - CORTOT;10 RUE DU MONT CENIS;75118;2.3415475619;48.8873833995
3750022;PORTE D'AUBERVILLIERS - OBERLE;RUE JEAN OBERLE;75119;2.37080160627;48.8996642065
7176265;BROCHANT - CARDINET;157 RUE CARDINET;75117;2.31791487344;48.8911565292
7691391;PORTE DE CLIGNANCOURT;102 BOULEVARD NEY;75118;2.34332048256;48.8981140003
7176290;HAVRE - HAUSSMANN;19-21 RUE AUBER;75109;2.32763579362;48.8733000539
3747862;PORTE DE SAINT-MANDE;4 AVENUE COURTELINE;75112;2.41081277856;48.8441225404
3747829;ARCHIVES - RAMBUTEAU;1-3 RUE RAMBUTEAU;75104;2.35661015275;48.8601054261
6423459;LA FAYETTE - MAGENTA - GARE DU NORD;110 BOULEVARD DE MAGENTA;75110;2.35458663739;48.8781073832
1903;Javel-André-Citroen;Rue de la Convention;75115;2.27781512635;48.8459638805
6423465;REPUBLIQUE - MAGENTA;1 BIS BOULEVARD DE MAGENTA;75110;2.36243065246;48.869010827
1926;Dupleix;Boulevard de Grenelle;75115;2.29364833623;48.8503925783
3741069;PORTE DE LA CHAPELLE;BOULEVARD NEY;75118;2.3570061102;48.8983551707
3764470;JAVEL;4 AVENUE EMILE ZOLA;75115;2.27781504397;48.8460357805
1958;Gare du Nord;Rue du Faubourg St Denis;75110;2.35637208136;48.8793833026
3764504;RICHELIEU - 4 SEPTEMBRE;87 RUE DE RICHELIEU;75102;2.33905300286;48.8700919543
3749920;BUCAREST;11 BIS-13 RUE DE SAINT-PETERSBOURG;75108;2.3250044012;48.8811996332
6961991;PONT CARDINET;145 RUE CARDINET;75117;2.3144137304;48.887623943
3764548;RIVOLI - PONT NEUF;128 RUE DE RIVOLI;75101;2.34428309814;48.8598821062
3687451;PYRENEES - MENILMONTANT;121 RUE DE MENILMONTANT;75120;2.39383345239;48.8698808119
7013382;PATAY - TOLBIAC;45 RUE DE TOLBIAC;75113;2.37173520827;48.827737927
2160;Alexandre-Dumas;111 boulevard de Charonne;75111;2.39455425765;48.8564263483
3764623;VAL DE GRACE;86 BOULEVARD SAINT-MICHEL;75106;2.33774486728;48.8420781269
3764994;PLACE DU 18 JUIN 1940;71 BOULEVARD DU MONTPARNASSE;75106;2.32465920663;48.8437581306
7013402;ALESIA - GENERAL LECLERC;54 RUE D'ALESIA;75114;2.32767142518;48.8279402636
6591453;ARTS ET METIERS;FACE 56 RUE DE TURBIGO;75103;2.357211674;48.8658123175
2224140;OPERA;11 RUE SCRIBE;75109;2.33059246213;48.8720959556
3765160;PONT CARDINET;3-5 RUE JOUFFROY D'ABBANS;75117;2.31307844254;48.8870215367
3765300;BIBLIOTHEQUE CHEVALERET;FACE 5 RUE DE TOLBIAC;75113;2.37565736442;48.8301004742
3813156;PLACE DU 18 JUIN 1940 - RUE DE L'ARRIVEE;FACE 3 RUE DE L'ARRIVEE;75115;2.32238519748;48.8438117935
3764843;SAINT-MICHEL - SAINT-GERMAIN;1 BOULEVARD SAINT-MICHEL;75105;2.34407787301;48.8529617938
2427;Porte de Vanves;9 boulevard Brune;75114;2.30431235076;48.8277653266
7137439;HOPITAL BICHAT;23-25 RUE HENRI HUCHARD;75118;2.32988018635;48.8989497293
2466;Saint-Germain des Prés;Ecole des Beaux Arts;75106;2.33304632604;48.8534472377
3442429;BREA - NOTRE-DAME-DES-CHAMPS;22-24 RUE VAVIN;75106;2.33021482715;48.8437945386
3747821;MAIRIE DU II;6-8 RUE DE LA BANQUE;75102;2.34000646185;48.8663981361
3764810;PONT NEUF - QUAI DU LOUVRE;FACE 14 QUAI DU LOUVRE;75101;2.34157241583;48.8585520981
3672173;ERIGNAC;30 AV LEON GAUMONT;75120;2.41603806561;48.8507340012
3747856;FABRE D'EGLANTINE;2 AV DE SAINT-MANDE;75112;2.39595830158;48.8454339805
5770798;EVANGILE - AUBERVILLIERS;73 RUE DE L'EVANGILE;75118;2.37044454724;48.8955392127
3749661;ABBESSES;30 R YVONNE LE TAC;75118;2.33894447891;48.8843547723
3749744;JEAN JAURES;55 AVENUE DU BELVEDERE;75119;2.40726680829;48.8803348938
3749785;GRANDS BOULEVARDS;170 RUE MONTMARTRE;75102;2.3429358046;48.8706670217
5121396;ALESIA - MAINE;230 AVENUE DU MAINE;75114;2.32647341748;48.8284254937
3764974;SAINT-MARCEL - JEANNE D'ARC;45-47 BOULEVARD SAINT-MARCEL;75113;2.35649304227;48.8381580004
3765168;PORTE D'ASNIERES - MARGUERITE LONG;19 AVENUE DE LA PORTE D'ASNIERES;75117;2.30198223325;48.8913416101
5454886;CUVIER - JARDIN DES PLANTES;2-4 RUE LINNE;75105;2.35490209008;48.8441349647
6591529;BELLEVILLE - MENILMONTANT;BOULEVARD DE MENILMONTANT;75120;2.3832317356;48.8669914488
3764813;CITE - PALAIS DE JUSTICE;FACE 1 BOULEVARD DU PALAIS;75101;2.34608037373;48.855819671
3764830;GLACIERE - AUGUSTE BLANQUI;RUE DE LA GLACIERE;75113;2.34434726508;48.8310950958
5454909;ILE SAINT-LOUIS;17 RUE DES DEUX PONTS;75104;2.35622567351;48.8516572958
6591547;TURBIGO - REPUBLIQUE;164-166 RUE DU TEMPLE;75103;2.36146210571;48.8662519105
3764827;GLACIERE - NORDMANN;RUE DE LA GLACIERE;75113;2.34438833518;48.8327667892
7013412;VERCINGETORIX;200 RUE D'ALESIA;75114;2.31083003979;48.8330966123
5454936;PLACE D'ITALIE - MAIRIE DU 13E;169 BOULEVARD DE L'HOPITAL;75113;2.35619133151;48.8321992774
3765281;GAMBETTA - MAIRIE DU 20E;46-48 AVENUE GAMBETTA;75120;2.39923699829;48.865681029
3813504;DESNOUETTES;19 BOULEVARD VICTOR;75115;2.284322768;48.8340224892
7137437;LECLAIRE;22 RUE JEAN LECLAIRE;75117;2.32729069131;48.89666681
3764751;ALESIA - MAINE;FACE 222 AVENUE DU MAINE;75114;2.32670480425;48.8285693166
3741095;PLACE DE LA CHAPELLE;5 RUE MARX DORMOY;75118;2.35916783003;48.8850627604
3747857;FABRE D'EGLANTINE;5 BIS AV DE SAINT-MANDE;75112;2.39636708281;48.8456674536
7176260;SQUARE DES BATIGNOLLES;6 PLACE CHARLES FILLION;75117;2.31765731899;48.8874537635
4459242;AUBER;FACE 8 RUE AUBER;75109;2.32989763833;48.8720330035
3764790;MAIRIE DU 14E;178 AVENUE DU MAINE;75114;2.32496153863;48.8320922979
5657297;L'ERMITAGE;347 RUE DES PYRENEES;75120;2.39145162645;48.872083815
3747916;GRANGE AUX BELLES - JULIETTE DODU;27 RUE JULIETTE DODU;75110;2.36894657901;48.8754891291
3926176;PORTE DE VANVES.;1 PLACE DE LA PORTE DE VANVES;75114;2.30512938082;48.8273161676
5657325;CONDORCET;59 RUE DE MAUBEUGE;75109;2.34804653143;48.8793304239
3747928;CHEMIN VERT;28 AVENUE PARMENTIER;75111;2.37863563528;48.8604682945
3926214;HAVRE - HAUSSMANN;16-18 RUE AUBER;75109;2.32767662724;48.8735157526
3748094;BASTILLE - RUE SAINT-ANTOINE;1-3 PLACE DE LA BASTILLE;75104;2.36830638997;48.8530568032
3749645;LAMARCK - CAULAINCOURT;100-102 RUE CAULAINCOURT;75118;2.33931262631;48.8895853228
7275169;PORTE D'ORLEANS;132 AVENUE DU GENERAL LECLERC;75114;2.32543991368;48.8237608031
4472769;LEGENDRE;FACE 131 R DE ROME;75117;2.31708567562;48.8855483788
3749934;MARCADET;59 RUE RAMEY;75118;2.34556833769;48.8902501025
7275296;CHARLES DE GAULLE - ETOILE - CHAMPS-ELYSEES;135 AVENUE DES CHAMPS-ELYSEES;75108;2.29665383194;48.8731407409
4651132;SAINT-MICHEL - SAINT-GERMAIN;1-3 PLACE SAINT-MICHEL;75105;2.34429585011;48.8534830536
3764991;OBSERVATOIRE - PORT ROYAL;100 BOULEVARD DE PORT ROYAL;75105;2.33734999039;48.8396514901
7275303;ROND-POINT DES CHAMPS-ELYSEES;24-26 AVENUE DES CHAMPS-ELYSEES;75108;2.30897234001;48.8694594978
7275322;CONCORDE;6 PLACE DE LA CONCORDE;75108;2.32130235635;48.8669633038
5709978;CHATELET;108 RUE DE RIVOLI;75101;2.34693902635;48.8590281157
4677745;PORTE DE CHOISY;FACE 142 BOULEVARD MASSENA;75113;2.36314161604;48.8195433488
5710037;CHATELET;FACE AU 2 QUAI DE LA MEGISSERIE;75101;2.34631217568;48.8573295424
3765280;RAMUS;180-180 BIS RUE DES PYRENEES;75120;2.40024062967;48.8620316251
5727642;MUSEE D'ART MODERNE - PALAIS DE TOKYO;20 AVENUE DE NEW-YORK;75116;2.29651154088;48.8634972675
7275436;DENFERT-ROCHEREAU - DAGUERRE;15 AVENUE DU GENERAL LECLERC;75114;2.33088346418;48.832254539
3807584;MICHEL DEBRE;18-20 RUE DU VIEUX COLOMBIER;75106;2.3307040211;48.8517844515
4997000;PLACE DE LA CHAPELLE;226-228 RUE DU FAUBOURG SAINT-DENIS;75110;2.35934437572;48.8836247711
7275452;HOTEL DE VILLE DE PARIS_4E_ARRONDISSEMENT;2-4 AVENUE VICTORIA;75104;2.35080678042;48.856978606
3811228;CHATEAUDUN - LAMARTINE;9 RUE DE MAUBEUGE;75109;2.34135592147;48.8766975702
4997008;BOUCRY;61 RUE DE LA CHAPELLE;75118;2.35913141195;48.8956406844
3807616;CAMBRONNE - VAUGIRARD;249 RUE DE VAUGIRARD;75115;2.3044677291;48.8403839561
3811251;TOUR EIFFEL;1 AVENUE DE LA BOURDONNAIS;75107;2.29573746639;48.86053116
5747229;CHATEAU LANDON;FACE 186 RUE DU FAUBOURG SAINT-MARTIN;75110;2.36175391374;48.8783847307
4997018;SAINT-GILLES - CHEMIN VERT;57 BOULEVARD BEAUMARCHAIS;75103;2.36796841218;48.8572809896
3811249;BOSQUET - RAPP;PONT DE L'ALMA;75107;2.30190628919;48.8628069616
3748051;PONT SULLY - QUAI DE BETHUNE;FACE 3-5 BOULEVARD HENRI IV;75104;2.35939819826;48.85011989
6591466;MICHEL DEBRE;76 RUE DE RENNES;75106;2.33075854371;48.8514069808
3764783;MAINE - VAUGIRARD;30 BOULEVARD DU MONTPARNASSE;75115;2.31881700087;48.8455279109
7275654;HOPITAL DE VAUGIRARD;383 RUE DE VAUGIRARD;75115;2.29311620045;48.8355809273
5761325;PORTE MAILLOT - METRO - RER;PLACE JOSEPH ET MARIE HACKIN;75116;2.28044886592;48.8781580157
5018362;MAISON BLANCHE;150 AVENUE D'ITALIE;75113;2.35827030621;48.8225192344
3747911;VERDUN;FACE 156 RUE DU FAUBOURG SAINT-MARTIN;75110;2.36055394051;48.8763808076
3764762;EL SALVADOR;45 AVENUE DUQUESNE;75107;2.31142011273;48.8510538448
3749711;MONTROSIER - PARMENTIER;FACE 27 AVENUE DE LA PORTE DES TERNES;75117;2.28089454927;48.8818070564
3926205;PYRAMIDES;20 AVENUE DE L'OPERA;75101;2.33433943952;48.8662183851
5761961;PORTE D'AUBERVILLIERS;R D'AUBERVILLIERS;75119;2.37126486213;48.899340539
3926238;PORTE DE MONTMARTRE;FACE 16 R GERARD DE NERVAL;75118;2.33480098683;48.9005136902
3749755;MANIN;FACE 86 RUE DE CRIMEE;75119;2.3859844936;48.8824934504
5762002;BOULAY;190 AVENUE DE CLICHY;75117;2.31535161136;48.8934657887
3926272;PORTE DE BAGNOLET - LOUIS GANNE;FACE 3-5 RUE LOUIS GANNE;75120;2.40999555518;48.8633921514
5762028;FLANDRE;64 RUE DE L'OURCQ;75119;2.37872945171;48.8926157914
3747840;RAMBOUILLET;70 BIS AVENUE DAUMESNIL;75112;2.38096497536;48.8444607882
5018207;LA JONQUIERE;48-50 RUE POUCHET;75117;2.32085773035;48.8944642478
5770775;PLACE DES FETES;3 RUE LOUISE THULIEZ;75119;2.39408709963;48.8775648413
5018345;CARDINAL LEMOINE;27 RUE MONGE;75105;2.35151225839;48.8468945856
5770776;PLACE DES FETES;25 RUE DES FETES;75119;2.39241033744;48.87680171
5018392;GARE DE L'EST;FACE 93 BOULEVARD DE STRASBOURG;75110;2.35827833371;48.8759318664
5770814;DUHESME - LE RUISSEAU;116 RUE ORDENER;75118;2.33978981176;48.8932341076
3749888;MAIRIE DU 15E;148 RUE LECOURBE;75115;2.29976919227;48.8418655149
5018430;PORTE D'ITALIE - HELENE BOUCHER;AVENUE DE LA PORTE D'ITALIE;75113;2.35979301867;48.8185194317
3741064;MARCADET - POISSONNIERS;71 R DES POISSONNIERS;75118;2.35166084496;48.8915796246
4726928;REAUMUR - ARTS ET METIERS;37-39 RUE REAUMUR;75103;2.35443265016;48.865722877
3749781;PALAIS ROYAL - MUSEE DU LOUVRE;153 RUE SAINT HONORE;75101;2.33779954716;48.8624616961
4726947;GARE DE LYON.;FACE 165 RUE DE BERCY;75112;2.37555773411;48.8426651445
4726953;OBERKAMPF - FILLES DU CALVAIRE;20 BOULEVARD DES FILLES DU CALVAIRES;75111;2.3671266572;48.8619726325
5121384;ARMORIQUE - MUSEE POSTAL;44 BOULEVARD DE VAUGIRARD;75115;2.3164630022;48.8410966709
3764818;SAINT-JACQUES - GAY-LUSSAC;40 RUE GAY LUSSAC;75105;2.34217031848;48.8437407199
5121352;VICTORIEN SARDOU;127 AVENUE DE VERSAILLES;75116;2.26948512933;48.8430564612
5121372;GARE MONTPARNASSE;PLACE RAOUL DAUTRY;75115;2.32057475725;48.8419870846
5121388;JEAN ZAY - MAINE;3 RUE JEAN ZAY;75114;2.32216914837;48.8375564324
3765257;GARE DE LYON.;179 RUE DE BERCY;75112;2.37339338997;48.843627487
3764779;FONTENOY - UNESCO;25-27 RUE D'ESTREES;75107;2.30740262333;48.8510349307
5251758;CARREFOUR DE LONGCHAMP;ALLEE DE LONGCHAMP;75116;2.24142290448;48.8643644287
3811256;CHAMP DE MARS - SUFFREN;FACE 4 AVENUE DU DOCTEUR BROUARDEL;75107;2.29572834292;48.8549140156
5122016;PORTE D'ORLEANS;132 BOULEVARD BRUNE;75114;2.32448723817;48.8232394197
3811271;VASCO DE GAMA - LOURMEL;6-8 RUE VASCO DE GAMA;75115;2.28197720514;48.8377063335
5138165;TRINITE;34 R DE MOGADOR;75109;2.33123236296;48.8758436962
5138169;OPERA - 4 SEPTEMBRE;38 AVENUE DE L'OPERA;75102;2.33282702414;48.8697773289
5138172;PALAIS ROYAL - COMEDIE FRANCAISE;1-3 AVENUE DE L'OPERA;75101;2.33499342078;48.8640344682
5138194;DENFERT-ROCHEREAU;30 PLACE DENFERT-ROCHEREAU;75114;2.33144145619;48.8337734726
6961986;BOULAY;190 AVENUE DE CLICHY;75117;2.31535161136;48.8934657887
4997017;SAINT-CLAUDE;97 BOULEVARD BEAUMARCHAIS;75103;2.36732976015;48.8598695293
5150758;JEAN ZAY - MAINE;3 RUE JEAN ZAY;75114;2.32216914837;48.8375564324
5657278;LA FAYETTE - SAINT QUENTIN - GARE DU NORD;FACE 147 RUE LA FAYETTE;75110;2.35642645607;48.8790327904
5018175;WAGRAM - PRONY;66 RUE DE PRONY;75117;2.30234210212;48.883163356
5657288;MATHURIN MOREAU - SIMON BOLIVAR;107-109 AVENUE SIMON BOLIVAR;75119;2.37422182328;48.878776955
5018336;GRENIER SAINT-LAZARE - QUARTIER DE L'HORLOGE;59 RUE BEAUBOURG;75103;2.35421375837;48.8628739099
5018386;CHATELET;FACE 1 BOULEVARD DE SEBASTOPOL;75101;2.34805569286;48.8579045923
5657309;ORTEAUX;108-110 RUE DES PYRENEES;75120;2.4048647761;48.8565287913
4378084;PARC MONTSOURIS;61 AVENUE RENE COTY;75114;2.33602961783;48.8249926932
5158063;PORTE DE CLICHY;1 AVENUE DE LA PORTE DE CLICHY;75117;2.31287050365;48.8944988302
7170677;PLACE DU 18 JUIN 1940 - RUE DU DEPART;7 RUE DU DEPART;75115;2.32410110759;48.8430210929
7176259;LOBLIGEOIS;56-58 RUE DES BATIGNOLLES;75117;2.31900696712;48.8861598193
5121359;DEGAS;42 AVENUE DE VERSAILLES;75116;2.27502005341;48.8489013659
5231624;GAMBETTA;4 PLACE GAMBETTA;75120;2.39896334007;48.8646655979
4459238;EUROPE;53 RUE DE ROME;75108;2.32189818364;48.8790423308
5727649;LAMBALLE - ANKARA;78 AVENUE DU PRESIDENT KENNEDY;75116;2.28300829996;48.8542258556
4459255;SAINT-PAUL;92 RUE SAINT-ANTOINE;75104;2.36201517035;48.8548108306
3764719;DUQUESNE - LOWENDAL;19 AVENUE DUQUESNE;75107;2.30840930307;48.8530124215
5727659;RADIO FRANCE - PONT DE GRENELLE;116 AVENUE DU PRESIDENT KENNEDY;75116;2.27949682772;48.8521121514
1166827;Bibliothèque-François Mitterrand;Face au 62 rue du Chevaleret;75113;2.37612000934;48.8298306953
3764722;ECOLE MILITAIRE;PLACE DE L'ECOLE MILITAIRE;75107;2.30606615953;48.8540903257
4378090;DAREAU - SAINT-JACQUES;25 BOULEVARD SAINT-JACQUES;75114;2.33890193523;48.8321198838
3764729;PALAIS DE LA DECOUVERTE;FACE 5 AVENUE F.D. ROOSEVELT;75108;2.31041860542;48.8652537503
4378109;CITE UNIVERSITAIRE;FACE 43 R GAZAN;75114;2.34088879239;48.82156834
5727667;PONT MIRABEAU;55 AVENUE DE VERSAILLES;75116;2.27357882119;48.8470401919
3764795;GARE SAINT-LAZARE;14 PL GABRIEL PERI;75108;2.32481507627;48.8751691521
4471741;PORTE D'IVRY-MASSENA;82 BOULEVARD MASSENA;75113;2.36827385553;48.8214295379
1646;Rennes;Terre-plein face au 78 boulevard Raspail;75106;2.32802174863;48.8481982688
3764819;SAINT-JACQUES - GAY-LUSSAC;29 RUE GAY LUSSAC;75105;2.34238819942;48.8438755236
4471742;PORTE DE CHOISY;130 BOULEVARD MASSENA;75113;2.36395849753;48.8200464796
3765147;OPERA;10 RUE HALEVY;75109;2.33281321665;48.8719253
3740545;ALFRED CAPUS;118 BOULEVARD SUCHET;75116;2.25997002122;48.8502766238
3765195;PONT D'AUSTERLITZ - QUAI DE LA RAPEE;1 BOULEVARD DIDEROT;75112;2.36864223518;48.8453993759
3765207;SAINT-GERMAIN - ODEON;87 BOULEVARD SAINT-GERMAIN;75106;2.33970608958;48.8521620799
3749671;MOULIN DE LA GALETTE;100-102 RUE LEPIC;75118;2.3374727323;48.8871587964
3765265;PONT DE TOLBIAC;1-3 RUE NEUVE TOLBIAC;75113;2.37940244616;48.8319057188
3749642;CUSTINE - MONT-CENIS;60-62 RUE CUSTINE;75118;2.34316958931;48.8897739247
5761986;BARBES - ROCHECHOUART;168 BOULEVARD DE MAGENTA;75110;2.34994151453;48.8832486791
4473143;DENFERT-ROCHEREAU - ARAGO;108-110 AVENUE DENFERT-ROCHEREAU;75114;2.33273470104;48.8348700153
3749687;TRINITE;73 RUE SAINT-LAZARE;75109;2.33140946163;48.8760953492
4459253;HOTEL DE VILLE;6 AVENUE VICTORIA;75104;2.35008495875;48.8571764094
5158079;EUROPE;27 RUE DE VIENNE;75108;2.32285215568;48.8784942264
4473171;PORTE MAILLOT - PALAIS DES CONGRES;FACE 93 BOULEVARD GOUVION-SAINT-CYR;75117;2.28423626686;48.8787079847
3747809;GARE SAINT-LAZARE;FACE 61 RUE DE L'ARCADE;75108;2.32465169886;48.8746658462
4471843;GARE DE LYON - VAN GOGH;205-207 RUE DE BERCY;75112;2.37152874024;48.8448952791
4473182;FRIEDLAND - HAUSSMANN;169-171 BOULEVARD HAUSSMANN;75108;2.30628533194;48.8747883105
3747816;OPERA;FACE 1 RUE AUBER;75109;2.33170973064;48.8712871538
3811269;CONVENTION - BOUCICAUT;135 RUE SAINT CHARLES;75115;2.28314174244;48.8438094151
3747865;PORTE DE MONTEMPOIVRE;FACE 17-19 AVENUE EMILE LAURENT;75112;2.41202021954;48.841030075
3812951;PONT DE GRENELLE - MAURICE BOURDET;7 RUE MAURICE BOURDET;75116;2.27880357949;48.8509434418
3812958;VOLONTAIRES - VAUGIRARD;223-225 RUE DE VAUGIRARD;75115;2.30833398711;48.8415353639
4473029;GARE MONTPARNASSE.;PLACE RAOUL DAUTRY;75115;2.32042499293;48.8419421258
3747917;HOPITAL SAINT-LOUIS;FACE 22 AVENUE CLAUDE VELLEFAUX;75110;2.3699124864;48.8731521692
3812961;VANEAU - SAINT-ROMAIN;99-103 R DE SEVRES;75106;2.32095395705;48.8485300485
4473034;MAIRIE DU 15E;148 RUE LECOURBE;75115;2.29976919227;48.8418655149
3812972;GUYNEMER - VAVIN;74 RUE D'ASSAS;75106;2.33202571934;48.8451247851
4473040;LOUIS ARMAND;FACE 1 RUE DU COLONEL PIERRE AVIA;75115;2.27845697526;48.8323300671
3813048;CHAMP DE MARS - LA BOURDONNAIS;60 AVENUE DE LA BOURDONNAIS;75107;2.30317785807;48.8555814505
3813051;ECOLE MILITAIRE;5 PL DE L'ECOLE MILITAIRE;75107;2.3060387638;48.8543509546
4473192;PASQUIER - ANJOU;82 BOULEVARD HAUSSMANN;75108;2.3252104449;48.8741176785
3747838;DAUMESNIL - DIDEROT;42 AVENUE DAUMESNIL;75112;2.37775261208;48.8460347395
3813053;DUQUESNE - LOWENDAL;19 AVENUE DUQUESNE;75107;2.30840930307;48.8530124215
5231627;ECHANGEUR DE BAGNOLET;7 AVENUE CARTELLIER;75120;2.41126451915;48.8648832752
3813076;SULLY - MORLAND;13 BOULEVARD HENRI IV;75104;2.36292599952;48.8514043908
3749739;PORTE DES LILAS;GARE ROUTIERE SUR DALLE DU BD PERIPHERIQUE;75120;2.40923813355;48.8770983004
1166839;Madeleine;Rue De Sèze;75108;2.32416248879;48.8695789706
3749918;EUROPE;27 RUE DE VIENNE;75108;2.32285215568;48.8784942264
3748057;BASTILLE - FAUBOURG SAINT-ANTOINE;4 RUE DU FAUBOURG SAINT-ANTOINE;75112;2.37077132596;48.8528494234
5355344;PORTE DE LA VILLETTE;81-83 BD MACDONALD;75119;2.38702084291;48.8974207445
6591472;RENNES - LITTRE;146 BIS RUE DE RENNES;75106;2.32463171079;48.8448366304
6591476;GARE MONTPARNASSE;PLACE RAOUL DAUTRY;75115;2.32069729215;48.8420230518
3748055;LA CERISAIE;38 BOULEVARD HENRI IV;75104;2.36620856127;48.8522035227
3747864;JULES LEMAITRE - MAURICE RAVEL;13 AVENUE MAURICE RAVEL;75112;2.41149073854;48.8421089118
6591541;CHATELET;FACE 3-7 BOULEVARD DE SEBASTOPOL;75104;2.3481783185;48.8581023044
6591548;REPUBLIQUE;9 PLACE DE LA REPUBLIQUE;75103;2.36418685676;48.866682719
5478419;MORTEMART;AVENUE DU TREMBLAY;75112;2.46162323043;48.8296013097
6591770;PELLEPORT - BELLEVILLE;245-247 RUE DE BELLEVILLE;75119;2.39743655696;48.8754601709
3748098;EGLISE SAINT-SULPICE;10 PLACE SAINT SULPICE;75106;2.33349591438;48.8513441863
6591845;GRENIER SAINT-LAZARE - QUARTIER DE L'HORLOGE;59 RUE BEAUBOURG;75103;2.35421375837;48.8628739099
3749647;LAMARCK - BECQUEREL;23 RUE LAMARCK;75118;2.34400076352;48.888362891
5657273;CARREFOUR DE CHATEAUDUN;17 RUE DE CHATEAUDUN;75109;2.33920307857;48.8758258578
7013378;BIBLIOTHEQUE FRANCOIS MITTERRAND;109-111 AVENUE DE FRANCE;75113;2.37677370379;48.8301809975
4658207;PORTE DE LA VILLETTE;81/83 BD MACDONALD;75119;2.38614846153;48.8974121184
5709853;WATT;QUAI PANHARD ET LEVASSOR;75113;2.38404179617;48.8286954036
3749912;HAUSSMANN - MIROMESNIL;10-12 AVENUE PERCIER;75108;2.31452852106;48.8744756122
4651127;OBSERVATOIRE - PORT ROYAL;49 AVENUE DE L'OBSERVATOIRE;75114;2.33676452111;48.8392560366
3749914;SAINT-AUGUSTIN;108 BOULEVARD HAUSSMANN;75108;2.32138174953;48.874620519
7069416;SUZANNE LENGLEN;23 RUE HENRY FARMAN;75115;2.27615512327;48.8332905822
5709994;MULLER;46-48 R DE CLIGNANCOURT;75118;2.34784378172;48.8873650319
3764989;PORT ROYAL - BERTHOLLET;FACE 47 BOULEVARD DE PORT ROYAL;75105;2.3451650904;48.8377908017
4677656;WILSON - COURCELLES;221 RUE DE COURCELLES;75117;2.29285248288;48.8891996083
7137431;LOBLIGEOIS;56-58 RUE DES BATIGNOLLES;75117;2.31900696712;48.8861598193
5710031;LOUVRE - ETIENNE MARCEL;19 RUE DU LOUVRE;75101;2.34252646919;48.8645556408
3765290;AVENUE DE SAINT-MANDE;55 AVENUE DU DOCTEUR ARNOLD NETTER;75112;2.40551624966;48.8444402578
5710061;PORTE DE CLIGNANCOURT;BOULEVARD ORNANO;75118;2.34431549251;48.8977185118
3781622;PORTE D'ORLEANS-METRO;3 PLACE DU 25 AOUT 1944;75114;2.32550822533;48.8226373504
5727656;RADIO FRANCE;FACE 104 AVENUE DU PRESIDENT KENNEDY;75116;2.28160674769;48.8530568397
7153067;PORTE D'ITALIE;159 AVENUE D'ITALIE;75113;2.35953483177;48.8194631894
5710044;REAUMUR - MONTMARTRE;140 RUE MONTMARTRE;75102;2.34349413466;48.8686268681
5727662;RADIO FRANCE - PONT DE GRENELLE;7 AVENUE DE VERSAILLES;75116;2.27813624705;48.8509610874
4723805;BARON LE ROY;BD PONIATOWSKI;75112;2.39290547541;48.8303363265
3764821;FEUILLANTINES;49-51 RUE GAY LUSSAC;75105;2.34350450404;48.8416375744
5727665;DEGAS;41 AVENUE DE VERSAILLES;75116;2.27537418768;48.8488476255
5727672;VERSAILLES - EXELMANS;148-150 AVENUE DE VERSAILLES;75116;2.2659744208;48.8413377911
4471831;PORTE DE CHOISY;FACE 7 RUE LACHELIER;75113;2.36612253319;48.8199830605
3764759;MAINE - VAUGIRARD;15-17 BOULEVARD DU MONTPARNASSE;75106;2.31847640839;48.8459772333
4471839;PLACE D'ITALIE;9 PLACE D'ITALIE;75113;2.35638172114;48.8316510026
5727632;PYRAMIDES - TUILERIES;194 RUE DE RIVOLI;75101;2.3315879075;48.8640343549
5727669;WILHEM;101 AVENUE DE VERSAILLES;75116;2.27113071455;48.8446391914
4473151;VAVIN;106 BOULEVARD DU MONTPARNASSE;75114;2.32863556168;48.8421317414
4473153;PORTE D'ORLEANS-METRO;4 PLACE DU 25 AOUT 1944;75114;2.32520875626;48.822736185
7170678;PLACE DU 18 JUIN 1940 - RUE DU DEPART;7 RUE DU DEPART;75115;2.32410110759;48.8430210929
4726951;SAINT-GILLES - CHEMIN VERT;50 BOULEVARD BEAUMARCHAIS;75111;2.36828167321;48.8572719209
7170698;SAINT-MICHEL - SAINT-GERMAIN;10 BOULEVARD SAINT-MICHEL;75105;2.34346494151;48.8523776423
4726963;GARE SAINT-LAZARE.;9 RUE DU HAVRE;75108;2.32655912544;48.874917677
5355346;PLACE AUGUSTE BARON;BOULEVARD DE LA COMMANDERIE;75119;2.38630193916;48.9011506976
5454875;STADE CHARLETY - PORTE DE GENTILLY;96 RUE DE L' AMIRAL MOUCHEZ;75114;2.34380136322;48.8202739878
5761431;PLACE DE TORCY;8 RUE DE L'EVANGILE;75118;2.36132390467;48.8913443983
6423445;PORTE DE CLIGNANCOURT;FACE 53 RUE BELLIARD;75118;2.34535143866;48.8977004717
5761992;PLACE DE CLICHY - CAULAINCOURT;130 BIS BOULEVARD DE CLICHY;75118;2.32872393996;48.8843185301
6423495;PORTE DE SAINT-MANDE;1 AVENUE COURTELINE;75112;2.41096281897;48.8443021982
5762020;PLACE DE CLICHY;6 PLACE DE CLICHY;75109;2.32786557593;48.8834287295
7275295;CHARLES DE GAULLE - ETOILE - GRANDE ARMEE;2 AVENUE DE LA GRANDE ARMEE;75116;2.29327385692;48.8744516883
5657300;PYRENEES - MENILMONTANT;276-278 RUE DES PYRENEES;75120;2.39439234623;48.8701771273
4471739;OUDINE;67 RUE DE PATAY;75113;2.37353091792;48.8261016411
4651129;AUGUSTE COMTE;109 BOULEVARD SAINT-MICHEL;75105;2.3390112372;48.8437048584
4473023;VOLONTAIRES - VAUGIRARD;223-225 RUE DE VAUGIRARD;75115;2.30833398711;48.8415353639
4997001;DEPARTEMENT - MARX DORMOY;38-40 RUE MARX DORMOY;75118;2.35975461959;48.8869140179
5710060;PORTE DE CLIGNANCOURT;BOULEVARD ORNANO;75118;2.34468352958;48.8977364637
5018342;MAUBERT - MUTUALITE;4 RUE MONGE;75105;2.34926594505;48.8494113318
5710084;CHATEAUDUN - LAMARTINE;9 RUE DE MAUBEUGE;75109;2.34135592147;48.8766975702
4726916;HAVRE - HAUSSMANN;19 RUE AUBER;75109;2.32748590902;48.8733809275
5018383;LAGRANGE;5 RUE LAGRANGE;75105;2.34793185606;48.8518201027
4726946;GARE DE LYON;FACE 191 RUE DE BERCY;75112;2.37318938238;48.8439780622
5727702;CHATELET;FACE 16 QUAI DE GESVRES;75104;2.34746983854;48.8570148887
6591524;REAUMUR - ARTS ET METIERS;37-39 RUE REAUMUR;75103;2.35443265016;48.865722877
5761426;TRISTAN TZARA;35 RUE DE L'EVANGILE;75118;2.36619128104;48.8944618629
6591532;PYRENEES;88-90 RUE DE BELLEVILLE;75120;2.38509063373;48.8737042555
4843414;PORTE DE VITRY;FACE 29 AVENUE DE LA PORTE DE VITRY;75113;2.37736769445;48.8237276667
5761971;RIQUET;64 AVENUE DE FLANDRE;75119;2.3745967604;48.8885459631
4843804;BIBLIOTHEQUE CHEVALERET;FACE 5 RUE DE TOLBIAC;75113;2.37565736442;48.8301004742
3666562;GARE DE L'EST;9-11 RUE DU 8 MAI 1945;75110;2.35788327505;48.8761116812
4726759;DUROC;56 BOULEVARD DES INVALIDES;75107;2.31605195771;48.8473698897
5770793;CAMBRAI;70 RUE DE L'OURCQ;75119;2.37648130156;48.8935781792
4726756;VAUBAN - HOTEL DES INVALIDES;1 AVENUE DE TOURVILLE;75107;2.31126911006;48.8534444777
4726758;OUDINOT;48 BOULEVARD DES INVALIDES;75107;2.31517974568;48.8489695053
3672265;PORTE DE MONTREUIL;76 BOULEVARD DAVOUT;75120;2.41067696054;48.8539908903
4726931;TURBIGO - REPUBLIQUE;164-166 RUE DU TEMPLE;75103;2.36146210571;48.8662519105
4758933;PORTE DE CLICHY;22 RUE ANDRE SUARES;75117;2.31175266628;48.8948490953
4798794;CHATEAU DE VINCENNES;13 AVENUE DE NOGENT;75112;2.44134176378;48.8441447063
4798795;TREMBLAY - PEPINIERE;AVENUE DE NOGENT;75112;2.44961545455;48.8416746005
4996995;VALENCIENNES;140-142 RUE DU FAUBOURG SAINT-DENIS;75110;2.35649413573;48.8778194976
5018182;CHARLES DE GAULLE - ETOILE;56-58 AVENUE HOCHE;75108;2.29707490124;48.8748035354
5018195;BUCAREST;12 RUE DE SAINT-PETERSBOURG;75108;2.32451408123;48.8802379453
4035714;PORTE DE LA CHAPELLE;85-87 RUE DE LA CHAPELLE;75118;2.35900952346;48.8975100318
5018210;EPINETTES - POUCHET;RUE JACQUES KELLNER;75117;2.32453717161;48.8972057762
5018213;BOIS LE PRETRE;1 BOULEVARD DU BOIS LE PRETRE;75117;2.32122432687;48.8990387509
4035809;QUAI DE LA SEINE - STALINGRAD;4 AVENUE DE FLANDRE;75119;2.36951083754;48.8845391506
5018341;DANTE;63 BOULEVARD SAINT-GERMAIN;75105;2.34598415543;48.8505979652
5018346;MONGE;68 RUE MONGE;75105;2.35208323461;48.8435331849
3681839;PORTE D'AUTEUIL-METRO;PLACE DE LA PORTE D'AUTEUIL;75116;2.25806785846;48.8473814012
4036190;TREMBLAY - PEPINIERE;AV DE NOGENT;75112;2.44882745638;48.8424842208
4036820;NOTRE-DAME - QUAI DE MONTEBELLO;QUAI DE MONTEBELLO;75105;2.34800010857;48.8525840311
4037013;ABBE GROULT;315 RUE DE VAUGIRARD;75115;2.29876418495;48.8383690358
4037036;PASTEUR - FALGUIERE;52 BOULEVARD PASTEUR;75115;2.31387603348;48.8409254278
4997014;REPUBLIQUE - MAGENTA;1 BIS BOULEVARD DE MAGENTA;75110;2.36243065246;48.869010827
4037179;HOPITAL SAINT-ANTOINE;51 BOULEVARD DIDEROT;75112;2.38126654521;48.8468154059
3666673;GARE DE L'EST;9-11 RUE DU 8 MAI 1945;75110;2.35788327505;48.8761116812
5018206;BROCHANT - CARDINET;157 RUE CARDINET;75117;2.31791487344;48.8911565292
4037233;PORTE MAILLOT;85 AVENUE DE LA GRANDE ARMEE;75116;2.28414254285;48.8770902327
4037286;ROND-POINT DES CHAMPS-ELYSEES - FRANKLIN D. ROOSEVELT;ROND-POINT DES CHAMPS ELYSEES;75108;2.30988512723;48.869432749
4109729;CHATEAU DE VINCENNES;AVENUE DE NOGENT;75112;2.44195531874;48.8445396198
4109730;TREMBLAY - PEPINIERE;AVENUE DE NOGENT;75112;2.44961545455;48.8416746005
7013393;BOBILLOT - TOLBIAC;188 RUE DE TOLBIAC;75113;2.3494374464;48.8258459035
7013394;BOBILLOT - TOLBIAC;191 RUE DE TOLBIAC;75113;2.35078501148;48.8257468937
7013410;PLAISANCE - HOPITAL SAINT-JOSEPH;172 RUE D'ALESIA;75114;2.31382560767;48.8319827761
7013440;PORTE DE SAINT-CLOUD;PLACE DE LA PORTE DE SAINT CLOUD;75116;2.25617623204;48.8378802993
7013441;PORTE DE SAINT-CLOUD;PLACE DE LA PORTE SAINT CLOUD;75116;2.25621723198;48.8377814639
4146143;ERIGNAC;AVENUE LEON GAUMONT;75120;2.41557644616;48.8516690032
4146144;HILSZ - LAGNY;111-113 RUE DE LAGNY;75120;2.41256308992;48.8491904017
5121353;VICTORIEN SARDOU;114 BIS AVENUE DE VERSAILLES;75116;2.2693078789;48.8432361109
5121370;ARMORIQUE - MUSEE POSTAL;65 BOULEVARD DE VAUGIRARD;75115;2.31640866807;48.8407731097
7153051;GARE D'AUSTERLITZ;5 BIS BOULEVARD DE L'HOPITAL;75113;2.36399734294;48.8426053893
5121401;PORTE D'ORLEANS;123 AVENUE DU GENERAL LECLERC;75114;2.32569857586;48.8235630997
7153058;PLACE D'ITALIE;10 PLACE D'ITALIE;75113;2.35467997588;48.8314984744
7170667;MARSOULAN;44 COURS DE VINCENNES;75120;2.40281055193;48.8476593077
7170699;SAINT-MICHEL - SAINT-GERMAIN;10 BOULEVARD SAINT-MICHEL;75105;2.34346494151;48.8523776423
7176254;BUCAREST;12 RUE DE SAINT-PETERSBOURG;75108;2.32451408123;48.8802379453
4211795;SIMPLON;29 BOULEVARD ORNANO;75118;2.34727272348;48.8942223011
7176266;LA JONQUIERE;48-50 RUE POUCHET;75117;2.32085773035;48.8944642478
7176267;LA JONQUIERE;45 BIS RUE POUCHET;75117;2.3203944314;48.8940867226
7176287;FLOREAL;RUE FLOREAL;75117;2.31890670181;48.8999191543
7176398;PONT DE LA VALLEE;AVENUE DE LA PORTE DE VANVES;75114;2.30435474951;48.8253027217
3687086;HOTEL DE VILLE;FACE 2 QUAI DE GESVRES;75104;2.35030260237;48.8560619441
3887747;BIBLIOTHEQUE FRANCOIS MITTERRAND;110 AVENUE DE FRANCE;75113;2.37703251238;48.8303876267
3687274;ECHANGEUR DE BAGNOLET;7 AVENUE CARTELLIER;75120;2.41126451915;48.8648832752
3887769;LUXEMBOURG;FACE 6 PLACE EDMOND ROSTAND;75106;2.34011439486;48.847398705
3687239;LOUVRE - RIVOLI;6 PLACE DU LOUVRE;75101;2.3408915119;48.8603585907
3887784;VOLONTAIRES - LECOURBE;54 RUE LECOURBE;75115;2.30690287234;48.843961642
3687106;INVALIDES - LA TOUR-MAUBOURG;158 RUE DE GRENELLE;75107;2.30974128709;48.8580906408
3887816;JARDIN DES PLANTES;PLACE VALHUBERT;75105;2.36376688801;48.8446096596
3687101;GRENELLE - BELLECHASSE;110 RUE DE GRENELLE;75107;2.32080159676;48.8566097563
7275212;LES ECOLES;29-31 BOULEVARD SAINT-MICHEL;75105;2.34255223308;48.8500679061
3893372;LES ALPES;175 - 177 BOULEVARD VINCENT AURIOL;75113;2.3595128765;48.8317403345
3687301;RUE VIEILLE DU TEMPLE - MAIRIE DU 4E;32 RUE DE RIVOLI;75104;2.35720797682;48.8562047864
7275306;CONCORDE - COURS LA REINE;AVENUE DES CHAMPS-ELYSEES;75108;2.32024021262;48.8656330272
3893379;JEANNE D'ARC - EGLISE DE LA GARE;14 RUE JEANNE D'ARC;75113;2.36923144534;48.8292665243
3687455;SAINT-FARGEAU;187 AVENUE GAMBETTA;75120;2.40451743208;48.8722569018
7275324;PORTE MAILLOT - PALAIS DES CONGRES;PLACE DE LA PORTE MAILLOT;75117;2.2834736357;48.8783032156
3893380;PATAY - TOLBIAC;103-105 RUE DE PATAY;75113;2.37153083044;48.8274503814
3893425;RENNES - D'ASSAS;FACE 14BIS RUE D'ASSAS;75106;2.32857989596;48.8493127596
5121999;PERNETY;FACE 81 RUE VERCINGETORIX;75114;2.3146002432;48.8350566855
3893469;PONT DES INVALIDES - PLACE DE FINLANDE;FACE 41 QUAI D'ORSAY;75107;2.31114181306;48.8628273187
5122000;LOSSERAND - MAINE;5 RUE RAYMOND LOSSERAND;75114;2.32287741502;48.836540924
3716932;PONT DE L'ARCHEVECHE;FACE 55 QUAI DE LA TOURNELLE;75105;2.35163598257;48.8511007153
3716926;GARE DE LYON;FACE 179 RUE DE BERCY;75112;2.37362495567;48.8437442543
7275677;LOUIS ARMAND;FACE 1 RUE DU COLONEL PIERRE AVIA;75115;2.27845697526;48.8323300671
5138085;CHARONNE - KELLER;127 AVENUE LEDRU ROLLIN;75111;2.37762271258;48.8540965548
7275678;COLONEL PIERRE AVIA;FACE 29 RUE DU COLONEL PIERRE AVIA;75115;2.27545133911;48.829812011
3926237;ANGELIQUE COMPOINT;1 AVENUE DE LA PORTE DE MONTMARTRE;75118;2.33705021782;48.8979793476
3716962;LACHAMBEAUDIE;2 RUE DE BERCY;75112;2.3858318341;48.8359207259
5138197;MOUTON - DUVERNET;29-31 AVENUE DU GENERAL LECLERC;75114;2.3294134374;48.8305737671
3926239;PORTE DE MONTMARTRE;1 R LOUIS PASTEUR VALLERY-RADOT;75118;2.33450109737;48.9003878641
3926249;ALLERAY;82-84 RUE DUTOT;75115;2.30697505822;48.8369333955
5138220;SEVRES - BABYLONE;39 BOULEVARD RASPAIL;75107;2.32683624643;48.8519100006
3926250;BRANCION - VOUILLE;32 RUE BRANCION;75115;2.30466221261;48.8342365089
3926292;REUILLY - DIDEROT;81 BOULEVARD DIDEROT;75112;2.38749044347;48.8475229557
3926300;PONT D'AUSTERLITZ - QUAI DE LA RAPEE;1 BOULEVARD DIDEROT;75112;2.36864223518;48.8453993759
3926302;SAINT-MARCEL - LA PITIE;48 BOULEVARD DE L'HOPITAL;75113;2.36101376912;48.8391637912
5150763;GARE DE LYON - VAN GOGH;FACE 207 RUE DE BERCY;75112;2.37165147822;48.8451738568
3926406;COLONEL FABIEN;6 AVENUE MATHURIN MOREAU;75119;2.3711282331;48.878004969
3754278;PERE CORENTIN;40 RUE DU PERE CORENTIN;75114;2.32957755968;48.8254148721
3754288;KUSS;FACE 16 RUE KUSS;75113;2.35034851112;48.8221159239
3749766;CAIL - DEMARQUAY;FACE 191 RUE DU FAUBOURG SAINT-DENIS;75110;2.35856687513;48.8818005025
3749778;BIBLIOTHEQUE NATIONALE;FACE 58 RUE DE RICHELIEU;75102;2.33794945905;48.8679619658
4008216;HAUSSMANN - COURCELLES;174 BOULEVARD HAUSSMANN;75108;2.30847875269;48.8751213905
4008232;PLACE JEAN MONNET;125 AVENUE VICTOR HUGO;75116;2.28156350058;48.867966927
3749926;SQUARE CAULAINCOURT;58 RUE CAULAINCOURT;75118;2.33589180803;48.8894864737
4008234;LYCEE JANSON DE SAILLY;108 RUE DE LA POMPE;75116;2.27959065221;48.8657191483
3749885;CAMBRONNE - LECOURBE;118-120 RUE LECOURBE;75115;2.30196097134;48.8425042999
3749695;HAUSSMANN - MIROMESNIL;119 BOULEVARD HAUSSMANN;75108;2.31463723323;48.8751317058
4008861;PLACE POSSOZ;78 AV PAUL DOUMER;75116;2.27759536309;48.8594449664
3749690;GARE SAINT-LAZARE;119-121 RUE SAINT LAZARE;75108;2.32580965408;48.8753759596
4008871;CHARDON-LAGACHE - MOLITOR;16-20 RUE CHARDON-LAGACHE;75116;2.26626933879;48.8447262681
3764624;OBSERVATOIRE - PORT ROYAL;18 AVENUE DE L'OBSERVATOIRE;75106;2.33649219501;48.840289604
3764604;GARE DU NORD;PISTE GARE ROUTIERE;75110;2.35749011856;48.8811715827
5231610;DAUMESNIL - LEDRU ROLLIN;59 AVENUE LEDRU ROLLIN;75112;2.37275698519;48.8488584088
4726746;TERNES - MAC MAHON;1 AVENUE NIEL;75117;2.29418294732;48.8789906003
4726750;MARCEAU - PIERRE 1ER DE SERBIE - PLACE DE BEYROUTH;27 AVENUE MARCEAU;75116;2.29908346232;48.867057118
4726934;OBERKAMPF - FILLES DU CALVAIRE;11 BOULEVARD DES FILLES DU CALVAIRE;75103;2.36678622692;48.8621614526
4009620;RENNES - LITTRE;146 BIS RUE DE RENNES;75106;2.32463171079;48.8448366304
4009644;SAINT-AUGUSTIN;FACE 24 RUE DE LA PEPINIERE;75108;2.32079580463;48.8748630966
4843413;PORTE DE VITRY;15-17 AVENUE DE LA PORTE DE VITRY;75113;2.37754416213;48.8231074576
6217407;BALZAC;21 AVENUE DE FRIEDLAND;75108;2.30212998791;48.874427666
4016273;LOUVRE - ETIENNE MARCEL;54 RUE DU LOUVRE;75102;2.34338479681;48.8656520589
4016276;GRANDS BOULEVARDS;166-168 RUE MONTMARTRE;75102;2.34289491855;48.8705322136
4016293;BROCHANT - CARDINET;141 AVENUE DE CLICHY;75117;2.31865079116;48.8913184155
6251756;CENSIER - DAUBENTON;96 RUE MONGE;75105;2.35175571847;48.840971777
4016318;PROVENCE - DROUOT;21-23 RUE DROUOT;75109;2.34072901177;48.8745765888
4016333;PETITS CHAMPS - DANIELLE CASANOVA;30-32 AVENUE DE L'OPERA;75102;2.33352194092;48.8681776058
4016345;GUY MOQUET;86 AVENUE DE SAINT OUEN;75118;2.32749588687;48.8927574154
4997016;OBERKAMPF - FILLES DU CALVAIRE;11 BOULEVARD DES FILLES DU CALVAIRE;75103;2.36678622692;48.8621614526
6423453;CHATEAU ROUGE;54-56 BOULEVARD BARBES;75118;2.34971093371;48.887742314
7376274;PALAIS DES CONGRES;PLACE DE LA PORTE MAILLOT;75116;2.28050449049;48.8771334921
6423462;MAGENTA - SAINT-MARTIN;119 RUE DU FAUBOURG SAINT-MARTIN;75110;2.35850935008;48.874439934
7376287;SAINT-AUGUSTIN;10-12 RUE LA BOETIE;75108;2.31808461609;48.8744133262
6423483;CHARONNE;173 BOULEVARD VOLTAIRE;75111;2.38610786109;48.8543450252
6423485;RUE DES BOULETS;209 BOULEVARD VOLTAIRE;75111;2.38964684438;48.8522764055
7647699;MARIE DE MIRIBEL;108-112 BOULEVARD DAVOUT;75120;2.40981210771;48.8588446369
4028836;CHATEAU DE VINCENNES;AVENUE DE NOGENT;75112;2.44166941764;48.8445668334
7647726;COLETTE BESSON;FACE 17-19 BOULEVARD NEY;75118;2.36338561153;48.8986684924
7647750;PONT DE TOLBIAC;1-3 RUE NEUVE TOLBIAC;75113;2.37940244616;48.8319057188
7653680;VARENNE - RASPAIL;19 BOULEVARD RASPAIL;75107;2.32637284104;48.8536445391
4035553;JEAN JAURES - LORRAINE;119 AVENUE JEAN JAURES;75119;2.38174945093;48.8859012678
4035557;LOUIS BLANC;217 RUE DU FAUBOURG SAINT-MARTIN;75110;2.36448030086;48.8807118407
4035711;PORTE D'AUBERVILLIERS;4 BOULEVARD NEY;75118;2.36919255055;48.8987749235
4035800;FLANDRE-ALPHONSE KARR;167 AVENUE DE FLANDRE;75119;2.38200237043;48.8947265907
4035804;RIQUET;FACE 60 AVENUE DE FLANDRE;75119;2.37347880935;48.8879531529
4035808;QUAI DE LA SEINE - STALINGRAD;11 AVENUE DE FLANDRE;75119;2.36917012939;48.8845032935
7691431;CHARLES DE GAULLE - ETOILE;66 AVENUE HOCHE;75108;2.29661184552;48.8745607212
7691438;BOIS LE PRETRE;1 BOULEVARD DU BOIS LE PRETRE;75117;2.32122432687;48.8990387509
7714362;MARBEAU;38 BOULEVARD DE L'AMIRAL BRUIX;75116;2.27926698334;48.8749759461
4036646;RUE VIEILLE DU TEMPLE - MAIRIE DU 4E;32 RUE DE RIVOLI;75104;2.35720797682;48.8562047864
4036661;GARE SAINT-LAZARE;FACE 9 RUE DE ROME;75108;2.32540109828;48.8745221262
4036666;PORTE DE COURCELLES;RUE DE COURCELLES;75117;2.29455713949;48.8878970872
4036782;MONGE - CLAUDE BERNARD;119-119BIS RUE MONGE;75105;2.35097907397;48.838958657
3813146;PEREIRE;4 BIS PLACE DU MARECHAL JUIN;75117;2.29782991248;48.8853009098
4036789;VANDREZANNE;27 AVENUE D'ITALIE;75113;2.3568296561;48.8281727181
4037218;ARGENTINE;40 AVENUE DE LA GRANDE ARMEE;75117;2.28883085833;48.8758609715
3747828;CENTRE GEORGES POMPIDOU;35 RUE RAMBUTEAU;75104;2.3538998552;48.8609955888
4037291;SAINT-GUILLAUME;183-185 BOULEVARD SAINT GERMAIN;75107;2.32947790015;48.8546244144
7647695;PORTE DE VINCENNES;FACE 103 COURS DE VINCENNES;75120;2.40968691195;48.8472239237
4037297;PLACE DU 18 JUIN 1940 - RUE DE L'ARRIVEE;FACE 3 RUE DE L'ARRIVEE;75115;2.32238519748;48.8438117935
7647752;THOMAS MANN;QUAI PANHARD ET LEVASSOR;75113;2.38187883355;48.8304038839
3747859;PICPUS;41-43 AV DE SAINT-MANDE;75112;2.40128239101;48.8452514865
4045002;PORT ROYAL - BERTHOLLET;FACE 47 BOULEVARD DE PORT ROYAL;75105;2.3451650904;48.8377908017
3747875;SEBASTOPOL - ETIENNE MARCEL;4 RUE ETIENNE MARCEL;75102;2.35050882666;48.8635933705
4045025;PLACE DE CLICHY;6 PLACE DE CLICHY;75109;2.32786557593;48.8834287295
7653678;MICHEL DEBRE;45 RUE DU FOUR;75106;2.33116700669;48.8522518243
7653708;PEREIRE;4 BIS PLACE DU MARECHAL JUIN;75117;2.29782991248;48.8853009098
3749692;SAINT-AUGUSTIN;10-12 RUE LA BOETIE;75108;2.31808461609;48.8744133262
3749772;PARADIS;69 RUE DU FAUBOURG POISSONNIERE;75109;2.34815481617;48.8758882861
3749779;PALAIS ROYAL - COMEDIE FRANCAISE;PLACE ANDRE MALRAUX;75101;2.33555194236;48.863504222
3749784;REAUMUR - MONTMARTRE;140 RUE MONTMARTRE;75102;2.34349413466;48.8686268681
4146146;PYRENEES - DOCTEUR NETTER;73 COURS DE VINCENNES;75120;2.40667781188;48.8475223035
6217395;PLACE POSSOZ;77 AVENUE PAUL DOUMER;75116;2.2776364839;48.8592203016
3749788;SQUARE MONTHOLON;90 RUE LA FAYETTE;75109;2.34699680022;48.8765444586
4996983;SAINT-GILLES - CHEMIN VERT;50 BOULEVARD BEAUMARCHAIS;75111;2.36828167321;48.8572719209
3749900;BOSQUET - SAINT-DOMINIQUE;31 AVENUE BOSQUET;75107;2.30359781007;48.8590686922
4996984;SAINT-CLAUDE;90 BOULEVARD BEAUMARCHAIS;75111;2.36769746798;48.8597705743
6251751;MAUBERT - MUTUALITE;3 RUE MONGE;75105;2.3495246996;48.8494472554
4996985;OBERKAMPF - FILLES DU CALVAIRE;20 BOULEVARD DES FILLES DU CALVAIRES;75111;2.3671266572;48.8619726325
7714361;PORTE DAUPHINE - MARECHAL DE LATTRE DE TASSIGNY;BOULEVARD LANNES;75116;2.27448982492;48.8706865754
4997013;MAGENTA - SAINT-MARTIN;119 RUE DU FAUBOURG SAINT-MARTIN;75110;2.35850935008;48.874439934
7714363;MARBEAU;BOULEVARD DE L'AMIRAL BRUIX;75116;2.27955268665;48.8753535513
7714374;PORTE DE COURCELLES;158 BOULEVARD BERTHIER;75117;2.29619348509;48.8867023634
5018159;VAUVENARGUES;205 RUE ORDENER;75118;2.33313844529;48.8939799979
3764840;GLACIERE - TOLBIAC;127-129 RUE DE LA GLACIERE;75113;2.34201896732;48.8266822834
4211792;CAMILLE FLAMMARION;134 BOULEVARD NEY;75118;2.33955831621;48.8979523641
6251865;NOTRE-DAME - QUAI DE MONTEBELLO;QUAI DE MONTEBELLO;75105;2.34800010857;48.8525840311
3764966;GARE MONTPARNASSE;PLACE RAOUL DAUTRY;75115;2.32026161851;48.8418791898
4211798;MARCADET - POISSONNIERS;96 BOULEVARD BARBES;75118;2.34976632771;48.8913911078
3764796;HAVRE - HAUSSMANN;19 RUE AUBER;75109;2.32748590902;48.8733809275
5018209;NAVIER;RUE NAVIER;75117;2.32265651741;48.8958125541
3781641;VERDUN - MARQUES;BOULEVARD HIPPOLYTE MARQUES;75113;2.36791765234;48.8175020042
3765264;BIBLIOTHEQUE CHEVALERET;5 RUE DE TOLBIAC;75113;2.37587508106;48.829974577
3765266;PARC DE BERCY;4 RUE JOSEPH KESSEL;75112;2.38286197158;48.8338008288
5018414;MAISON BLANCHE;150 AVENUE D'ITALIE;75113;2.35827030621;48.8225192344
3764734;MATIGNON - SAINT-HONORE;6 AV DELCASSE;75108;2.31471986193;48.8731095778
6263537;GAMBETTA;4 PLACE GAMBETTA;75120;2.39896334007;48.8646655979
3764789;CHATEAU - MAIRIE DU 14E;158 AVENUE DU MAINE;75114;2.32437580523;48.8334853149
3764791;ALESIA - MAINE;230 AVENUE DU MAINE;75114;2.32647341748;48.8284254937
3926208;OPERA - 4 SEPTEMBRE;38 AVENUE DE L'OPERA;75102;2.33282702414;48.8697773289
3926216;GARE SAINT-LAZARE;34 RUE DE ROME;75108;2.32323405383;48.8771102312
3926253;BARTHOLOME;8 AVENUE DE LA PORTE DE BRANCION;75115;2.30065111874;48.8270003073
3926200;PONT DU CARROUSEL - QUAI VOLTAIRE;FACE 21 QUAI MALAQUAIS;75106;2.33371334164;48.8582645264
8433;Porte d'Auteuil;Route des Lacs;75116;2.25769888566;48.8482259804
3926209;OPERA - 4 SEPTEMBRE;49 AVENUE DE L'OPERA;75102;2.33255456838;48.8696065591
1721;Saint-Germain des Prés;Ecole des Beaux Arts;75106;2.33304632604;48.8534472377
3926246;PLACE DU 18 JUIN 1940 - RUE DE L'ARRIVEE;FACE 3 RUE DE L'ARRIVEE;75115;2.32238519748;48.8438117935
1715;Saint-Augustin;Église Saint-Augustin;75108;2.32072783196;48.8743867602
3926248;PROCESSION;68 RUE DUTOT;75115;2.30796838047;48.8379402521
1774;Palais-Royal (Musée du Louvre);Terre-plein face au 93 rue de Rivoli;75101;2.33548383677;48.8633873851
1747;Porte de Saint-Cloud;Place de la Porte de Saint-Cloud;75116;2.25559127445;48.8375653345
3926283;BUZENVAL;38 R D'AVRON;75120;2.40194428391;48.8518838997
1785;Père-Lachaise;Avenue de la République;75111;2.38689240454;48.8629456617
3926289;NATION - DIDEROT;BOULEVARD DIDEROT;75112;2.3946404292;48.8481398624
1650;Port-Royal;47 avenue de l' Observatoire;75105;2.33687344089;48.839885166
3926397;REPUBLIQUE;12 PLACE DE LA REPUBLIQUE;75110;2.3639559689;48.8680398615
1808;Porte d'Italie;Boulevard Masséna;75113;2.36050083281;48.8187170251
3926404;HOPITAL SAINT-LOUIS;FACE 22 AVENUE CLAUDE VELLEFAUX;75110;2.3699124864;48.8731521692
1812;Ménilmontant;Ménilmontant (139/148 boulevard de);75111;2.38442937516;48.8657057876
1793;Place d'Italie;Place d' Italie;75113;2.35545587036;48.8312826555
1845;Odéon;Carrefour de l' Odéon;75106;2.33878000304;48.8521980452
1901;Jaurès;Face au 2 place de Stalingrad;75119;2.37058633617;48.8828762162
1728;Rue Saint-Maur;Avenue de la République;75111;2.38089978855;48.8640894057
1917;La Muette;5 avenue Mozart;75116;2.27409644811;48.8580950497
1824;Montparnasse-Bienvenue;Raoul Dautry (place, SNCF Montparnasse);75114;2.32444123243;48.8441895085
1987;Corvisart;Boulevard Auguste Blanqui;75113;2.35062272793;48.8298632521
1844;Oberkampf;43 boulevard Voltaire;75111;2.36763241156;48.8649742906
4008249;GARE D'AUTEUIL;77 RUE D'AUTEUIL;75116;2.26057283283;48.8478414031
2083;Champs-Elysées-Clémenceau;Clémenceau (place);75108;2.31412278037;48.8677440261
4008278;BEAUVAU;59 RUE DU FAUBOURG SAINT HONORE;75108;2.31590597983;48.8711865098
2082;Dugommier;3 boulevard de Reuilly;75112;2.38934738757;48.8388761517
1962;Glacière;Face au 124 boulevard Auguste Blanqui;75113;2.34312207582;48.831247952
4008282;CAPUCINES - CAUMARTIN;39 BOULEVARD DES CAPUCINES;75102;2.32969355906;48.8700917281
2020;Censier-Daubenton;96 rue Monge;75105;2.35175561295;48.8405943
1936;Exelmans;Hôpital Henry Dunant;75116;2.26014439788;48.8429069785
5121367;CAMBRONNE;44 RUE FREMICOURT;75115;2.30003742939;48.847563687
4008836;HAVRE - CAUMARTIN;64-66 BOULEVARD HAUSSMANN;75109;2.32798995162;48.8737404601
2443;Reuilly-Diderot;Boulevard Diderot;75112;2.38584254004;48.847352877
1972;Chaussée d'Antin (La Fayette);Rue La Fayette;75109;2.33304475093;48.8728599894
4008855;TROCADERO;120 AVENUE KLEBER;75116;2.28754807474;48.8637544989
2411;Saint-Sulpice;Rue de Rennes;75106;2.33096285637;48.8511463551
1971;Chaussée d'Antin (La Fayette);Rue La Fayette;75109;2.33342622405;48.8729858247
5121375;PASTEUR - LYCEE BUFFON;31 BOULEVARD PASTEUR;75115;2.31270397434;48.8432170144
4008878;PORTE DE SAINT-CLOUD;PLACE DE LA PORTE DE SAINT CLOUD;75116;2.25582199758;48.8380328464
2404;Place d'Italie;Place d' Italie;75113;2.35579614571;48.8311118383
1976;Cité Universitaire;24 boulevard Jourdan;75114;2.33940517033;48.8207684717
2156;Abbesses;Place des Abbesses;75118;2.33839938417;48.8843997149
2310;Oberkampf;43 boulevard Voltaire;75111;2.36753701348;48.8649024159
2033;Château Rouge;Rue Custine;75118;2.34937007325;48.8870862831
2168;Colonel Fabien;Tterre-plein face au 83 boulevard de la Villette;75110;2.37017454664;48.8781849818
2061;Barbès-Rochechouart;Boulevard de la Chapelle;75109;2.3493557086;48.8839317699
2071;Blanche;Terre-plein face au 59 boulevard de Clichy;75118;2.33248514827;48.8837705188
3807582;SAINT-GERMAIN-DES-PRES;54 RUE DE RENNES;75106;2.33250156996;48.853285443
2347;Porte d'Italie;Boulevard Masséna;75113;2.36050083281;48.8187170251
2152;Château Rouge;Rue Custine;75118;2.34937007325;48.8870862831
2298;Jaurès;Face au 2 place de Stalingrad;75119;2.37047696877;48.8823280249
2155;Châtelet;Théâtre du Châtelet;75101;2.34793324584;48.8585696725
3807581;JACOB;26-28 RUE DES SAINTS PERES;75107;2.33128914536;48.856008585
2487;Strasbourg-Saint-Denis;Porte Saint-Martin;75102;2.35450206309;48.8696323652
3343752;Félix Faure;Place Félix Faure;75115;2.29222496622;48.8428245677
2234;Kléber;15 avenue Kléber;75116;2.2933310209;48.8713061491
3811279;HOPITAL EUROPEEN GEORGES POMPIDOU;10 RUE LEBLANC;75115;2.27213068677;48.8399122963
4009630;RUE DU BAC - RENE CHAR;209-211 BOULEVARD SAINT-GERMAIN;75107;2.3252281948;48.856331675
3343786;Bastille;Rue de la Roquette;75104;2.36916481786;48.853739623
2217;Glacière;Face au 124 boulevard Auguste Blanqui;75113;2.34312207582;48.831247952
2212;Gare du Nord;Rue du Faubourg St Denis;75110;2.35460081047;48.8797430642
2230;Cité;2 Place Louis Lepine;75104;2.34620292953;48.8556848503
2201;Franklin-Roosevelt;Palais de la Découverte;75108;2.30992632447;48.8688126319
2175;Corentin-Cariou;avenue Corentin Cariou;75119;2.38230219397;48.894681542
3807615;VAUGIRARD - FAVORITES;FACE 252 RUE DE VAUGIRARD;75115;2.30167702384;48.8395922502
2179;Courcelles;Boulevard de Courcelles;75108;2.30329854668;48.8792721516
2256;Eglise d'Auteuil;20 rue Wilhem;75116;2.26947928219;48.8475322421
3811224;GARE DU NORD;GARE ROUTIERE;75110;2.35738102934;48.8809738816
2389;Parmentier;48 avenue de la République;75111;2.37475708172;48.8652598567
4016265;HOTEL DE VILLE;6 AVENUE VICTORIA;75104;2.35008495875;48.8571764094
2359;Miromesnil;29 rue de la Boétie;75108;2.31604128892;48.8734603255
4016295;BOULAY;177 AVENUE DE CLICHY;75117;2.31576072118;48.8929446076
2346;Porte d'Auteuil;Route des Lacs;75116;2.25769888566;48.8482259804
4016332;PYRAMIDES;25 - 27 AVENUE DE L'OPERA;75101;2.33378087811;48.8667216623
3442415;CHATELET;8 RUE SAINT-DENIS;75104;2.34748372999;48.8583899635
4016359;GARE SAINT-LAZARE;9 RUE DU HAVRE;75108;2.32654548753;48.8749805869
3343774;Bonne Nouvelle;Boulevard de Bonne Nouvelle;75109;2.34849429371;48.8705767536
4016363;SAINT-HONORE - VALOIS;151 BIS RUE SAINT HONORE;75101;2.33854873198;48.8622459929
3343758;Ecole Militaire;Avenue Duquesne;75107;2.30543956054;48.8542609216
3343768;Opéra;Théâtre National de l'Opéra;75109;2.33173704836;48.8706310801
2521;Saint-Marcel;La Pitié-Salpêtrière;75113;2.36072755036;48.8385167435
2551;Funiculaire Gare basse;Suzanne Valadon (place);75118;2.34261028296;48.8846961786
4022897;GEORGE V;95 AVENUE DES CHAMPS-ELYSEES;75108;2.30143708594;48.8715874686
2531;Nation;Terre-plein face au 3 place de la Nation;75112;2.39766461279;48.8490101536
3343789;Faidherbe-Chaligny;Hôpital St-Antoine;75111;2.38442877074;48.850067668
4022946;LILLE - UNIVERSITE;231 BOULEVARD SAINT-GERMAIN;75107;2.32180857708;48.8596566272
4022950;INVALIDES.;QUAI D'ORSAY;75107;2.31428846978;48.8627470803
2426;Porte de Saint-Ouen;Rue Liebniz;75118;2.32902164721;48.8975117328
4022952;PALAIS DE LA DECOUVERTE;FACE 5 AVENUE F.D. ROOSEVELT;75108;2.31041860542;48.8652537503
2402;Pigalle;26 boulevard de Clichy;75118;2.33721380175;48.8820270896
2412;Porte d'Ivry;Avenue d'Ivry;75113;2.36930823722;48.8213573623
3807578;MUSEE DU LOUVRE;PLACE DU CARROUSEL;75101;2.33350885255;48.860772008
3807579;MUSEE DU LOUVRE;PLACE DU CARROUSEL;75101;2.33398559045;48.8608349339
4378107;GLACIERE - TOLBIAC;6-8 AVENUE REILLE;75114;2.34109327856;48.8259273541
3807589;HOPITAL DES ENFANTS MALADES;FACE 149 RUE DE SEVRES;75107;2.31550757466;48.8465968663
3807590;SEVRES - LECOURBE;20 RUE LECOURBE;75115;2.30943517924;48.8447351874
3811242;ROND-POINT DES CHAMPS-ELYSEES;ROND-POINT DES CHAMPS ELYSEES;75108;2.30940866774;48.8687585879
3619840;FRERES LUMIERE;18 AVENUE DES CANADIENS;75112;2.46042445974;48.8177837534
3811258;DESAIX;26 RUE DESAIX;75115;2.29315577155;48.8530976253
3666775;PLACE DE LA CHAPELLE;226-228 RUE DU FAUBOURG SAINT-DENIS;75110;2.35934437572;48.8836247711
3812938;MAIRIE DU 15E;FACE 12 RUE PETEL;75115;2.29896546986;48.8423595738
3812948;PONT DE GRENELLE - PLACE FERNAND FOREST;3 RUE LINOIS;75115;2.28226482204;48.8489498688
3672109;PORTE DE MONTREUIL;76 BOULEVARD DAVOUT;75120;2.41067696054;48.8539908903
4459235;PORTE DE CHAMPERRET;135 AVENUE DE VILLIERS;75117;2.29276034565;48.8853979845
3812968;LUXEMBOURG;PLACE EDMOND ROSTAND;75106;2.34019609587;48.847308828
3764711;PLACE DU 18 JUIN 1940 - RUE DE L'ARRIVEE;51 BOULEVARD DU MONTPARNASSE;75106;2.32261651729;48.8443960113
3813041;NOTRE-DAME-DES-CHAMPS;FACE 114 BOULEVARD RASPAIL;75106;2.32893472116;48.8446213082
3764758;PLACE DU 18 JUIN 1940 - RUE DE L'ARRIVEE;51 BOULEVARD DU MONTPARNASSE;75106;2.32261651729;48.8443960113
3813057;OUDINOT;48 BOULEVARD DES INVALIDES;75107;2.31517974568;48.8489695053
3764824;PORT ROYAL - BERTHOLLET;4 RUE DE LA GLACIERE;75113;2.34527393807;48.8373144532
3813084;GARE DE LYON - VAN GOGH;205-207 RUE DE BERCY;75112;2.37152874024;48.8448952791
3764826;GLACIERE - ARAGO;15-15 BIS RUE DE LA GLACIERE;75113;2.34519197004;48.8354989675
3813099;PORTE DE REUILLY;40 AV DU GENERAL MICHEL BIZOT;75112;2.40019317189;48.8341524321
3764834;PARC MONTSOURIS;2 RUE GAZAN;75114;2.3399225516;48.8241658044
3813100;PORTE DE REUILLY;42-44 AVENUE DU GENERAL MICHEL BIZOT;75112;2.400465664;48.8343230521
3764847;PETITS CHAMPS - DANIELLE CASANOVA;30-32 AVENUE DE L'OPERA;75102;2.33352194092;48.8681776058
3813124;VAUBAN - HOTEL DES INVALIDES;PLACE VAUBAN;75107;2.31297146006;48.8535706613
3764967;PLACE DU 18 JUIN 1940;PLACE DU 18 JUIN 1940;75114;2.3238014203;48.8434973985
3813134;ALMA - MARCEAU;2-4 AVENUE DU PRESIDENT WILSON;75108;2.30051537021;48.8649275626
3765190;ROME - BATIGNOLLES;77 R DE ROME;75117;2.32001670246;48.8823314095
3813524;STADE CHARLETY - PORTE DE GENTILLY;97 BOULEVARD KELLERMANN;75113;2.34580198787;48.8194919312
3765192;AUBER;FACE 8 RUE AUBER;75109;2.32989763833;48.8720330035
3813526;POTERNE DES PEUPLIERS;63-65 BOULEVARD KELLERMANN;75113;2.35175009534;48.8208484975
3765228;ALMA - MARCEAU;2-4 AVENUE DU PRESIDENT WILSON;75108;2.30051537021;48.8649275626
3813532;PORTE D'IVRY;FACE 72 BD MASSENA;75113;2.3702475859;48.8216716747
3765229;IENA;18 AVENUE DU PRESIDENT WILSON;75116;2.29532519939;48.8650247101
3813538;BARON LE ROY;30 BD PONIATOWSKI;75112;2.39327289607;48.8302103275
3765254;JARDIN DES PLANTES;PLACE VALHUBERT;75105;2.36376688801;48.8446096596
3813539;BARON LE ROY;FACE 30 BD PONIATOWSKI;75112;2.39293271146;48.8303453014
3765258;PLACE D'ITALIE;7 PLACE D'ITALIE;75113;2.35640893165;48.8316060601
3813546;ALEXANDRA DAVID-NEEL;FACE 111 BD SOULT;75112;2.41019931401;48.8436196161
3887776;RENNES - SAINT-PLACIDE;128 RUE DE RENNES;75106;2.32587058082;48.8461039947
3887791;BRANCION - VOUILLE;21 RUE BRANCION;75115;2.3055058164;48.8350186575
3887794;MORILLONS - DANTZIG;FACE 39 RUE DES MORILLONS;75115;2.29920365827;48.8332103032
3807564;GARE DE L'EST;15-17 RUE DU 8 MAI 1945;75110;2.35699768328;48.8762376533
3893341;OPERA;1 RUE AUBER;75109;2.33158713662;48.8710894269
3807610;DESNOUETTES - VASCO DE GAMA;69 RUE DESNOUETTES;75115;2.28666277556;48.8356951988
3893365;MONGE - CLAUDE BERNARD;FACE 3-5 RUE CLAUDE BERNARD;75105;2.35020294512;48.8387700051
3807613;HOPITAL DE VAUGIRARD;383 RUE DE VAUGIRARD;75115;2.29311620045;48.8355809273
3893391;MASSENA - DARMESTETER;FACE 20 BOULEVARD MASSENA;75113;2.37487643672;48.8232341582
3811229;LE PELETIER - HAUSSMANN;RUE LE PELETIER;75109;2.33823562931;48.8724736051
3893397;PONT DES ARTS - QUAI DE CONTI;FACE 23 QUAI DE CONTI;75106;2.33744536683;48.8576893838
3811244;MONTAIGNE - FRANCOIS 1ER;35-37 AVENUE MONTAIGNE;75108;2.30573154781;48.8668343785
3893418;RUE DU BAC - RENE CHAR;209-211 BOULEVARD SAINT-GERMAIN;75107;2.3252281948;48.856331675
3811259;DESAIX;FACE 26 RUE DESAIX;75115;2.29364589575;48.8532955299
3811267;CHARLES MICHELS;85 RUE SAINT-CHARLES;75115;2.28587560958;48.8469382817
3811280;LEBLANC - DELBARRE;56 RUE LEBLANC;75115;2.2754007514;48.8379907012
3811290;SQUARE MONTHOLON;90 RUE LA FAYETTE;75109;2.34699680022;48.8765444586
3812949;PONT DE GRENELLE - PLACE FERNAND FOREST;6-8 RUE LINOIS;75115;2.2820332954;48.8489677367
3812970;AUGUSTE COMTE;109 BOULEVARD SAINT-MICHEL;75106;2.3390112372;48.8437048584
3813098;PORTE DE CHARENTON;10 AVENUE DU GENERAL MICHEL BIZOT;75112;2.3976587222;48.8322573602
3673589;DAUMESNIL - LEDRU ROLLIN;15 AVENUE DAUMESNIL;75112;2.37315161056;48.8484268909
3673592;CHARONNE - KELLER;114 AVENUE LEDRU ROLLIN;75111;2.37730869499;48.8530990531
3673613;PORTE DES LILAS-METRO;257 AVENUE GAMBETTA;75120;2.40634922023;48.8768663411
6591490;DEGAS;42 AVENUE DE VERSAILLES;75116;2.27502005341;48.8489013659
3673599;AUGUSTE METIVIER;4 AVENUE GAMBETTA;75120;2.3881319851;48.8629451387
6591519;SAINT-GERMAIN - ODEON;87 BOULEVARD SAINT-GERMAIN;75106;2.33970608958;48.8521620799
6591550;SAINT-MAUR - JEAN AICARD;120 RUE OBERKAMPF;75111;2.37968907951;48.8661120019
1166825;Olympiades;Rue de Tolbiac;75113;2.36703843339;48.826948282
3672264;PORTE DE VINCENNES;116 CRS DE VINCENNES;75120;2.41023131382;48.8470078912
3748091;LEDRU ROLLIN - FAUBOURG SAINT-ANTOINE;111-113 RUE DU FAUBOURG SAINT-ANTOINE;75111;2.37655827118;48.8512928224
3673636;SAINT MAUR - SERVAN;FACE 166 RUE DE LA ROQUETTE;75111;2.38487270258;48.8589381044
3748048;DANTE;63 BOULEVARD SAINT-GERMAIN;75105;2.34598415543;48.8505979652
3685680;CHATEAU DE VINCENNES;PISTE GARE ROUTIERE;75112;2.44079723454;48.8442170813
3747905;GARE DU NORD;PISTE GARE ROUTIERE;75110;2.35725827635;48.8806773228
3749666;ORSEL;86-88 RUE DES MARTYRS;75118;2.33984383835;48.883384135
3666726;VALENCIENNES;140-142 RUE DU FAUBOURG SAINT-DENIS;75110;2.35649413573;48.8778194976
3747852;PICPUS - REUILLY;76 BOULEVARD DE REUILLY;75112;2.39950525253;48.839491416
3747814;AUBER;8 RUE AUBER;75109;2.33003385735;48.8721947836
3749921;PLACE DE CLICHY;FACE 45 RUE DE SAINT-PETERSBOURG;75108;2.32680274161;48.8830152281
3666672;GARE DE L'EST;9 RUE DU 8 MAI 1945;75110;2.35821026231;48.8760666877
3764846;PALAIS ROYAL - MUSEE DU LOUVRE;172 RUE DE RIVOLI;75101;2.3360287312;48.8625785271
3740531;ALBERT DE MUN;43 AVENUE DU PRESIDENT WILSON;75116;2.29123955082;48.8638458557
3764831;DAVIEL;PASSAGE VICTOR MARCHAND;75113;2.34252283865;48.8288303087
3740535;SCHEFFER;20 RUE FRANKLIN;75116;2.28584883779;48.860212744
3765215;SOLFERINO - BELLECHASSE;FACE 250 BOULEVARD SAINT-GERMAIN;75107;2.32377051984;48.8576077341
3687414;RENNES - LITTRE;169-171 RUE DE RENNES;75106;2.32471348238;48.8445490384
3764784;PLACE DU 18 JUIN 1940;62 BOULEVARD DU MONTPARNASSE;75115;2.32235784014;48.8442431913
3741067;DIANE ARBUS;154 RUE DES POISSONNIERS;75118;2.35267131081;48.8979603765
3748060;CROZATIER;120 R DU FAUBOURG SAINT-ANTOINE;75111;2.37801502767;48.8507261219
3747934;FAIDHERBE - CHALIGNY;12 RUE DE REUILLY;75112;2.3849322048;48.8495821434
7013403;ALESIA - GENERAL LECLERC;81 RUE D'ALESIA;75114;2.32741282028;48.8277604897
3687423;SEINE - BUCI;125 BOULEVARD SAINT-GERMAIN;75106;2.33656010571;48.8528990751
3749792;PHILIPPE DE GIRARD;19 BOULEVARD DE LA CHAPELLE;75110;2.36186568094;48.88419946
7013444;EXELMANS;65 RUE MICHEL-ANGE;75116;2.26048402568;48.8434374625
3687121;EGLISE SAINT-GERVAIS;12 R FRANCOIS MIRON;75104;2.35501503428;48.8558456361
3749748;HOPITAL R. DEBRE - PRE ST GERVAIS;AVENUE DE LA PORTE DU PRE SAINT-GERVAIS;75119;2.40185584411;48.8792864398
3687247;SAINT-PAUL;92 RUE SAINT-ANTOINE;75104;2.36201517035;48.8548108306
3740306;PLACE DE CLICHY - CAULAINCOURT;130 BIS BOULEVARD DE CLICHY;75118;2.32872393996;48.8843185301
3740303;ROCHECHOUART - MARTYRS;112 BOULEVARD DE ROCHECHOUART;75118;2.34023896272;48.8822966696
3690071;BUZENVAL;58 RUE DE BUZENVAL;75120;2.40101912968;48.8526393459
3765291;HOPITAL TROUSSEAU;23 AVENUE DU DOCTEUR ARNOLD NETTER;75112;2.40498273805;48.8425621683
3687082;SAINT-PAUL;94 RUE SAINT ANTOINE;75104;2.3620561152;48.854990571
5709848;BIBLIOTHEQUE FRANCOIS MITTERRAND;109-111 AVENUE DE FRANCE;75113;2.37677370379;48.8301809975
3687120;PONT NEUF - QUAI DU LOUVRE;FACE 16 QUAI DU LOUVRE;75101;2.34123190532;48.8586150219
3687123;BASTILLE;PLACE DE LA BASTILLE;75104;2.36879653248;48.8528140129
5122015;PORTE D'ORLEANS;4 PLACE DU 25 AOUT 1944;75114;2.3251543596;48.8225294628
3716879;PONT DE SOLFERINO - QUAI DES TUILERIES;QUAI DES TUILERIES;75101;2.32522681102;48.8622993173
3687108;SAINT-PIERRE DU GROS CAILLOU;101 RUE SAINT DOMINIQUE;75107;2.30674394374;48.8595099228
3716884;PONT NEUF - QUAI DES ORFEVRES;72-70 QUAI DES ORFEVRES;75101;2.34166756887;48.8563052379
3687445;BELLEVILLE - MENILMONTANT;BOULEVARD DE MENILMONTANT;75120;2.3832317356;48.8669914488
5709980;RIVOLI - PONT NEUF;128 RUE DE RIVOLI;75101;2.34428309814;48.8598821062
3687411;GARE MONTPARNASSE;PLACE RAOUL DAUTRY;75115;2.31982592614;48.841798239
6217392;LES MOULINS - CAMPING;ROUTE DE SURESNES;75116;2.23376495486;48.8655173945
3716931;PONT DE LA TOURNELLE - CARDINAL LEMOINE;FACE 3 QUAI DE LA TOURNELLE;75105;2.35577559831;48.8498239216
3687437;SAINT-CLAUDE;68 RUE DE TURENNE;75103;2.36461922737;48.8599420821
5710000;ALBERT KAHN;FACE 119 RUE DU MONT CENIS;75118;2.34596442894;48.8953188365
3716925;MINISTERE DE L'ECONOMIE ET DES FINANCES;124 RUE DE BERCY;75112;2.37832060509;48.8410644413
3687457;PISCINE DES TOURELLES;229 AVENUE GAMBETTA;75120;2.40544691616;48.874566113
5710079;CUSTINE - RAMEY;25 R RAMEY;75118;2.34650846194;48.8887222106
6251749;DANTE;63 BOULEVARD SAINT-GERMAIN;75105;2.34598415543;48.8505979652
5138179;RUE DU BAC - RENE CHAR;2 BOULEVARD RASPAIL;75107;2.32550075221;48.8556396695
3690075;ORTEAUX - VITRUVE;22-24 RUE VITRUVE;75120;2.40284943663;48.8568714407
3690051;GAMBETTA;1 PLACE GAMBETTA;75120;2.3981052038;48.8647199635
4472771;EUROPE;53 RUE DE ROME;75108;2.32189818364;48.8790423308
5761335;CARREFOUR DE LONGCHAMP;ALLEE DE LONGCHAMP;75116;2.24142290448;48.8643644287
3740523;LA BOETIE - CHAMPS-ELYSEES;39 AVENUE DES CHAMPS-ELYSEES;75108;2.30559321827;48.8702764955
4473028;GARE MONTPARNASSE;8-10 BOULEVARD DE VAUGIRARD;75115;2.31949908164;48.8419599664
3740550;LOUIS BOILLY;1 RUE LOUIS BOILLY;75116;2.2675301527;48.8589991168
3740534;SCHEFFER;12 AVENUE PAUL DOUMER;75116;2.28366843036;48.8612183725
5761430;PLACE DE TORCY;FACE 2 RUE DE L'EVANGILE;75118;2.36114675368;48.8914073442
3716935;SAINT-MICHEL;FACE 17 QUAI DES GRANDS AUGUSTINS;75106;2.3436422076;48.8541571495
3741051;GARE DU NORD;PISTE GARE ROUTIERE;75110;2.35789926959;48.8820612503
5770792;FLANDRE;67 RUE DE L'OURCQ;75119;2.37939687646;48.8920943013
3750027;CRIMEE - AUBERVILLIERS;FACE 182 RUE D'AUBERVILLIERS;75118;2.37122119936;48.8951165979
5770802;PLACE HEBERT;19 RUE DE L'EVANGILE;75118;2.36308289502;48.8929886826
3764499;SAINT-GEORGES - CHATEAUDUN;29 RUE SAINT GEORGES;75109;2.33696854971;48.8765628312
3716895;GARE DE LYON;179 RUE DE BERCY;75112;2.37328450012;48.8436904326
5158066;BOULAY;190 AVENUE DE CLICHY;75117;2.31535161136;48.8934657887
3754274;ALESIA - GENERAL LECLERC;83-85 AVENUE DU GENERAL LECLERC;75114;2.32675950056;48.82735599
3716891;CUVIER;5 QUAI SAINT BERNARD;75105;2.36041820946;48.8470549613
3764436;DAREAU-RENE COTY;12-14 AVENUE RENE COTY;75114;2.33355187318;48.8305470048
3716969;CUVIER;FACE 5 QUAI SAINT BERNARD;75105;2.36097649792;48.8469829513
3764444;VERCINGETORIX;FACE 18 RUE VERCINGETORIX;75114;2.31940532925;48.8374212366
6423458;LA FAYETTE - MAGENTA - GARE DU NORD;103 BOULEVARD DE MAGENTA;75110;2.35346957884;48.878916395
3764613;GRENIER SAINT-LAZARE - QUARTIER DE L'HORLOGE;59 RUE BEAUBOURG;75103;2.35421375837;48.8628739099
3764724;INVALIDES - LA TOUR MAUBOURG;10 AVENUE DE LA MOTTE PICQUET;75107;2.30949664735;48.8571019672
3764750;ALESIA - GENERAL LECLERC;83-85 AVENUE DU GENERAL LECLERC;75114;2.32675950056;48.82735599
5231599;GAMBETTA;PLACE GAMBETTA;75120;2.39803748244;48.865052531
3764717;FONTENOY - UNESCO;PLACE DE FONTENOY;75107;2.30661268923;48.8511246048
5231616;CHARONNE - KELLER;114 AVENUE LEDRU ROLLIN;75111;2.37730869499;48.8530990531
3730328;PORTE D'ORLEANS;AVENUE DE LA PORTE D'ORLEANS;75114;2.32553572772;48.8213970528
3754208;MONTSOURIS - TOMBE ISSOIRE;FACE 160 RUE DE LA TOMBE ISSOIRE;75114;2.33058521558;48.8225029279
6591533;JOURDAIN;134 RUE DE BELLEVILLE;75120;2.38864771213;48.8747722637
3754269;GLACIERE - TOLBIAC;6-8 AVENUE REILLE;75114;2.34109327856;48.8259273541
5370720;PORTE D'ORLEANS;132 BOULEVARD BRUNE;75114;2.32448723817;48.8232394197
3750048;PORTE D'AUBERVILLIERS - OBERLE.;RUE JEAN OBERLE;75119;2.37058351515;48.8996822419
3750034;PAJOL;FACE 37 RUE PAJOL;75118;2.36250841275;48.8888097663
3749696;HAUSSMANN - COURCELLES;174 BOULEVARD HAUSSMANN;75108;2.30847875269;48.8751213905
5454915;CUVIER - JARDIN DES PLANTES;2-4 RUE LINNE;75105;2.35490209008;48.8441349647
3749652;PLACE DU TERTRE - NORVINS;10 RUE JEAN BAPTISTE CLEMENT;75118;2.33932614438;48.8868172646
3749657;GABRIELLE;1 PLACE JEAN BAPTISTE CLEMENT;75118;2.33857659458;48.8865206973
6591839;BELLEVILLE;5 RUE DE BELLEVILLE;75119;2.37751431368;48.8723589592
6591843;TURBIGO - REPUBLIQUE;85 RUE DE TURBIGO;75103;2.36168033036;48.8668090823
3764636;PORTE D'ORLEANS;PISTE GARE ROUTIERE;75114;2.32629746741;48.8236170823
7013417;BRANCION - VOUILLE;26 RUE DE VOUILLE;75115;2.3054108132;48.8345333021
5675634;PONT NATIONAL - QUAI DE BERCY;RUE ROBERT ETLIN;75112;2.3900172463;48.8281446591
5675648;BARON LE ROY;38 RUE BARON LE ROY;75112;2.38834891939;48.8342659556
4726921;OPERA;6 BOULEVARD DES CAPUCINES;75109;2.33303128756;48.8708827783
4726918;AUBER;FACE 8 RUE AUBER;75109;2.32989763833;48.8720330035
7137434;BROCHANT;14-16 RUE SAUFFROY;75117;2.32079064782;48.891103038
7161655;CITE - PALAIS DE JUSTICE;1 BOULEVARD DU PALAIS;75101;2.34638000511;48.8557836987
5709893;CHATEAU DE VINCENNES;PISTE GARE ROUTIERE;75112;2.44079723454;48.8442170813
5710023;ROCHECHOUART - CLIGNANCOURT;21 RUE GERANDO;75109;2.34622124718;48.8828535786
5710088;BOURSE;11 PLACE DE LA BOURSE;75102;2.34063325424;48.868689895
4843808;PORTE DE VITRY;15-17 AVENUE DE LA PORTE DE VITRY;75113;2.37754416213;48.8231074576
5727677;PORTE DE SAINT-CLOUD - MURAT;124 BOULEVARD MURAT;75116;2.25898201657;48.8371811459
5747230;CHATEAU LANDON;190 RUE DU FAUBOURG SAINT-MARTIN;75110;2.36225819058;48.8786362696
7275309;PONT DE SOLFERINO - QUAI DES TUILERIES;QUAI DES TUILERIES;75101;2.32522681102;48.8622993173
5761338;LES MOULINS - CAMPING;ROUTE DE SURESNES;75116;2.23472001777;48.8647632805
5018332;MAGENTA - SAINT-MARTIN;119 RUE DU FAUBOURG SAINT-MARTIN;75110;2.35850935008;48.874439934
5761446;PLACE DE LA CHAPELLE;226-228 RUE DU FAUBOURG SAINT-DENIS;75110;2.35934437572;48.8836247711
7275443;AUGUSTE COMTE;109 BOULEVARD SAINT-MICHEL;75105;2.3390112372;48.8437048584
7275444;LUXEMBOURG;75 BOULEVARD SAINT-MICHEL;75105;2.34027772794;48.8460415877
5761975;QUAI DE LA SEINE - STALINGRAD;4 AVENUE DE FLANDRE;75119;2.36951083754;48.8845391506
5018350;MONGE - CLAUDE BERNARD;118 RUE MONGE;75105;2.35067952202;48.8389137533
5761979;CHATEAU LANDON;191 RUE LA FAYETTE;75110;2.36174135348;48.8806405369
5018387;LES HALLES - CENTRE GEORGES POMPIDOU;28 BOULEVARD DE SEBASTOPOL;75104;2.34956822574;48.8606995311
4035040;PORTE MAILLOT - PALAIS DES CONGRES;70 AVENUE DE LA GRANDE ARMEE;75117;2.2851509097;48.8770097923
7275552;PORTE DE COURCELLES;RUE DE COURCELLES;75117;2.29455713949;48.8878970872
7275658;VAUGIRARD - FAVORITES;FACE 252 RUE DE VAUGIRARD;75115;2.30167702384;48.8395922502
4035727;GARE DU NORD;183 RUE DU FAUBOURG SAINT-DENIS;75110;2.35791253463;48.8811535357
4035732;VALENCIENNES;140-142 RUE DU FAUBOURG SAINT-DENIS;75110;2.35649413573;48.8778194976
4997012;LA FAYETTE - DUNKERQUE;33-35 RUE DE SAINT-QUENTIN;75110;2.35571806124;48.8794732784
4997020;BASTILLE - BEAUMARCHAIS;7 BOULEVARD BEAUMARCHAIS;75104;2.368742689;48.8538565723
5018148;CHATEAU ROUGE;54-56 BOULEVARD BARBES;75118;2.34971093371;48.887742314
4035988;GARE DE LYON;FACE 191 RUE DE BERCY;75112;2.37318938238;48.8439780622
5018157;DAMREMONT - ORDENER;171 RUE ORDENER;75118;2.33744549921;48.8934138777
4028840;PORTE JAUNE;AV DE NOGENT;75112;2.46062407189;48.838778696
5018170;JOUFFROY D'ABBANS - TOCQUEVILLE;21 RUE JOUFFROY D'ABBANS;75117;2.31021702107;48.8861042262
4036628;GAMBETTA;PLACE GAMBETTA;75120;2.39803748244;48.865052531
5018177;WAGRAM - COURCELLES;89 AVENUE DE WAGRAM;75117;2.30027218394;48.8812035119
4036755;OPERA;6 BOULEVARD DES CAPUCINES;75109;2.33303128756;48.8708827783
5018186;OPERA;4-6 RUE HALEVY;75109;2.33259527423;48.8714399763
5018191;GARE SAINT-LAZARE;38 RUE DE ROME;75108;2.32304320092;48.8774607126
4036828;GANNERON;26-28 AVENUE DE CLICHY;75118;2.32672051005;48.8853249392
5018198;MAIRIE DU 17E;18 RUE DES BATIGNOLLES;75117;2.3217057782;48.8845155403
5018356;PLACE D'ITALIE - MAIRIE DU 13E;79 AVENUE DES GOBELINS;75113;2.35514310485;48.832280328
4036981;PORTE SAINT-MARTIN;FACE 326 RUE SAINT-MARTIN;75110;2.35521010659;48.8685358049
4035035;PORTE MAILLOT;85 AVENUE DE LA GRANDE ARMEE;75116;2.28414254285;48.8770902327
4037210;ROND-POINT DES CHAMPS-ELYSEES;23 AVENUE DES CHAMPS-ELYSEES;75108;2.30886347029;48.8692437758
4037271;LA FAYETTE - MAGENTA - GARE DU NORD;110 BOULEVARD DE MAGENTA;75110;2.35458663739;48.8781073832
4037282;EUROPE;27 RUE DE VIENNE;75108;2.32285215568;48.8784942264
4044996;GARE DE LYON - DIDEROT;15-17 BOULEVARD DIDEROT;75112;2.37125688868;48.8456413209
4687324;PIERRE DE COUBERTIN;AVENUE FELIX D'HERELLE;75116;2.2562085164;48.8346447906
4687325;PIERRE DE COUBERTIN;7 AVENUE FELIX D'HERELLE;75116;2.25585416313;48.8348872139
4035731;GARE DE L'EST;81 BOULEVARD DE STRASBOURG;75110;2.35769231639;48.8755904512
4035801;FLANDRE-ALPHONSE KARR;156 AVENUE DE FLANDRE;75119;2.38204300447;48.8944299993
4035987;MINISTERE DE L'ECONOMIE ET DES FINANCES;133-135 RUE DE BERCY;75112;2.37832039166;48.840794815
4035989;GARE DE LYON;179 RUE DE BERCY;75112;2.37328450012;48.8436904326
4036665;PORTE DE CHAMPERRET;PLACE STUART MERRILL;75117;2.29270536383;48.8859461845
4723895;PONT NATIONAL - QUAI DE BERCY;RUE ROBERT ETLIN;75112;2.3900172463;48.8281446591
4726745;PIERRE DEMOURS;25 AVENUE NIEL;75117;2.29523047956;48.8810490574
4036748;GARE SAINT-LAZARE;FACE 9 RUE DE ROME;75108;2.32540109828;48.8745221262
4726939;BASTILLE;PLACE DE LA BASTILLE;75104;2.36879653248;48.8528140129
4036761;LOUVRE - ETIENNE MARCEL;19 RUE DU LOUVRE;75101;2.34252646919;48.8645556408
4726962;CHOISEUL;26 BOULEVARD DES ITALIENS;75109;2.33621925808;48.8714310755
4036772;DANTE;63 BOULEVARD SAINT-GERMAIN;75105;2.34598415543;48.8505979652
4037007;PASTEUR - LYCEE BUFFON;31 BOULEVARD PASTEUR;75115;2.31270397434;48.8432170144
5121386;MONTPARNASSE 2 - GARE TGV;10 PLACE DES 5 MARTYRS DU LYCEE BUFFON;75115;2.31672265993;48.8386880513
4037008;SEVRES - LECOURBE;20 RUE LECOURBE;75115;2.30943517924;48.8447351874
5121387;MONTPARNASSE 2 - GARE TGV;PLACE DES CINQ MARTYRS DU LYCEE BUFFON;75115;2.31702218816;48.8387150653
4037016;LYCEE LOUIS ARMAND;330-332 RUE LECOURBE;75115;2.28434668814;48.8372670188
4037175;PIERRE BOURDAN;107 BOULEVARD DIDEROT;75112;2.39047311014;48.8478991352
4037231;ANDRE MAUROIS;RUE JOSEPH ET MARIE HACKIN;75116;2.27938625724;48.8779777589
4037251;GARE MONTPARNASSE;PLACE RAOUL DAUTRY;75115;2.31982592614;48.841798239
4037252;PLACE DU 18 JUIN 1940;PLACE DU 18 JUIN 1940;75114;2.3238014203;48.8434973985
4037257;LES GOBELINS;81 BOULEVARD SAINT-MARCEL;75113;2.35261232628;48.8369182794
4037265;BASTILLE - BEAUMARCHAIS;2 BOULEVARD BEAUMARCHAIS;75111;2.36906955409;48.8538564854
4843806;OUDINE;67 RUE DE PATAY;75113;2.37353091792;48.8261016411
4037284;SAINT-AUGUSTIN;108 BOULEVARD HAUSSMANN;75108;2.32138174953;48.874620519
4843807;REGNAULT;5 BIS RUE DE PATAY;75113;2.37600713115;48.8245100447
4037288;INVALIDES;QUAI D'ORSAY;75107;2.31441106125;48.8627560913
6673107;SAINT-MICHEL - SAINT-GERMAIN;1 BOULEVARD SAINT-MICHEL;75105;2.34407787301;48.8529617938
4045019;ROND-POINT DES CHAMPS-ELYSEES - MATIGNON;FACE 3 AVENUE MATIGNON;75108;2.31172416745;48.8696937901
4889619;PORTE D'ORLEANS;SQUARE DU SERMENT DE KOUFRA;75114;2.32451484247;48.8216845539
4997019;PASTEUR - WAGNER;25 BOULEVARD BEAUMARCHAIS;75104;2.3684167311;48.8553665493
5018143;LA FAYETTE - MAGENTA - GARE DU NORD;103 BOULEVARD DE MAGENTA;75110;2.35346957884;48.878916395
5018167;PONT CARDINET;145 RUE CARDINET;75117;2.3144137304;48.887623943
5018168;PONT CARDINET;3-5 RUE JOUFFROY D'ABBANS;75117;2.31307844254;48.8870215367
5138219;RUE DU CHERCHE MIDI;59 BOULEVARD RASPAIL;75106;2.32739499755;48.8499238163
7376178;PORTE D'ORLEANS;123 AVENUE DU GENERAL LECLERC;75114;2.32569857586;48.8235630997
7376184;MAIRIE DU 14E;FACE 180 AVENUE DU MAINE;75114;2.32524741733;48.8321282775
7376282;HAUSSMANN - COURCELLES;153 BOULEVARD HAUSSMANN;75108;2.30969147494;48.8749329439
7376284;HAUSSMANN - MIROMESNIL;127 BOULEVARD HAUSSMANN;75108;2.31345188162;48.8750865384
3926398;JULES FERRY;36-38 QUAI DE JEMMAPES;75110;2.36745773497;48.8691175068
3926401;ALIBERT;155 AVENUE PARMENTIER;75110;2.36984326257;48.8713996609
3926420;LYCEE DIDEROT;78-80 R DAVID D'ANGERS;75119;2.39563110417;48.881392671
3926434;GRANGE AUX BELLES - JULIETTE DODU;27 RUE JULIETTE DODU;75110;2.36894657901;48.8754891291
4008217;HAUSSMANN - COURCELLES;165 BOULEVARD HAUSSMANN;75108;2.30808377029;48.8748696501
4008235;POMPE - MAIRIE DU 16EME;73 RUE DE LA POMPE;75116;2.27701830848;48.8637316654
7647696;PORTE DE VINCENNES;103 COURS DE VINCENNES;75120;2.40946912992;48.847295956
4008240;LA MUETTE - BOULAINVILLIERS RER;7 AVENUE MOZART;75116;2.27404230573;48.8578164108
7647698;PORTE DE MONTREUIL;65 BOULEVARD DAVOUT;75120;2.41051238514;48.8531821203
4008280;BOISSY D'ANGLAS;17-19 RUE DU FAUBOURG SAINT HONORE;75108;2.32145164868;48.8687967432
7647740;HONORE DE BALZAC;BOULEVARD BESSIERES;75117;2.31871712443;48.8963871838
4008840;HAUSSMANN - MIROMESNIL;142 BOULEVARD HAUSSMANN;75108;2.31304303641;48.8752931639
7647743;PORTE DE CLICHY - TRIBUNAL DE PARIS;BOULEVARD BERTHIER;75117;2.31443794077;48.8945440763
4008843;HAUSSMANN - COURCELLES;153 BOULEVARD HAUSSMANN;75108;2.30969147494;48.8749329439
7653684;SOLFERINO - BELLECHASSE;256 BOULEVARD SAINT-GERMAIN;75107;2.32349793854;48.8582637848
4008874;VERSAILLES - CHARDON LAGACHE;27 RUE CLAUDE TERRASSE;75116;2.26247868743;48.8388371064
7653695;SAINT-AUGUSTIN;10-12 RUE LA BOETIE;75108;2.31808461609;48.8744133262
4008884;JASMIN;89 AVENUE MOZART;75116;2.26793459562;48.8519352214
7653715;REIMS - HOTEL DES IMPOTS;4 BOULEVARD DE REIMS;75117;2.30030537682;48.8919881788
7653720;SEVRES - BABYLONE;17 RUE DE SEVRES;75106;2.32783046958;48.8516584343
7661318;GOSSET - POISSONNIERS;RUE DU PROFESSEUR GOSSET;75118;2.35143182683;48.9013756346
7676422;PORTE DE CLIGNANCOURT - CROISSET;FACE 7-9 RUE FRANCIS DE CROISSET;75118;2.3457061397;48.8995248333
3926186;GARE MONTPARNASSE;PLACE RAOUL DAUTRY;75115;2.32007100014;48.8418521998
6217393;LA MUETTE - BOULAINVILLIERS;11 CHAUSSEE DE LA MUETTE;75116;2.27372869492;48.8580948541
3926199;JACOB;13-15 RUE BONAPARTE;75106;2.33447620628;48.8561255386
6217399;TROCADERO;93 AVENUE KLEBER;75116;2.28792951574;48.8637276953
3926221;PLACE DE CLICHY;99 RUE D'AMSTERDAM;75108;2.32699356999;48.882763602
7691393;ANGELIQUE COMPOINT;101-103 BOULEVARD NEY;75118;2.33688664821;48.8976827719
3926227;DAMREMONT - LAMARCK;99 RUE LAMARCK;75118;2.33391557208;48.8905469229
6251759;MONGE - CLAUDE BERNARD;119-119BIS RUE MONGE;75105;2.35097907397;48.838958657
3926242;LIEGE;57 RUE D'AMSTERDAM;75108;2.32692588275;48.8805167838
3926309;PLACE D'ITALIE;FACE 6 RUE BOBILLOT;75113;2.35485666796;48.8306625999
7714263;PONT CARDINET - BATIGNOLLES;FACE 20 PLACE CHARLES FILLION;75117;2.31696211505;48.8878760458
7714271;JOUFFROY D'ABBANS - MALESHERBES;45 RUE JOUFFROY D'ABBANS;75117;2.307846198;48.8853577255
3926400;ALIBERT;68-70 QUAI DE JEMMAPES;75110;2.36587854332;48.8711490343
3926402;AVENUE RICHERAND;14 AVENUE RICHERAND;75110;2.36616523702;48.8722094692
3926423;PORTE BRUNET;BOULEVARD SERURIER;75119;2.3947340997;48.883514097
7714349;RAFFET;BOULEVARD SUCHET;75116;2.26188579352;48.8533246045
4009629;RUE DU BAC - RENE CHAR;242 BIS BOULEVARD SAINT-GERMAIN;75107;2.32543245633;48.8565024567
4009634;LILLE - UNIVERSITE;231 BOULEVARD SAINT-GERMAIN;75107;2.32180857708;48.8596566272
4009654;WAGRAM - PEREIRE;179 BOULEVARD MALESHERBES;75117;2.30529705622;48.8866062926
4008225;CHARLES DE GAULLE - ETOILE - VICTOR HUGO;1 AVENUE VICTOR HUGO;75116;2.29399698296;48.8732386664
4008281;MADELEINE;19-21 BOULEVARD DE LA MADELEINE;75101;2.32548400595;48.8694173364
4008854;KLEBER - BOISSIERE;86 AVENUE KLEBER;75116;2.28956158157;48.8665234326
4008872;JOUVENET;58 RUE CHARDON-LAGACHE;75116;2.26463779245;48.8429457535
4008888;GARE SAINT-LAZARE;111 RUE SAINT-LAZARE;75108;2.32608214699;48.8754119346
6423460;GARE DE L'EST;15-17 RUE DU 8 MAI 1945;75110;2.35699768328;48.8762376533
6423474;SAINT-AMBROISE;72 BOULEVARD VOLTAIRE;75111;2.37433181917;48.8611078175
6446076;PORTE D'ITALIE-METRO;AVENUE DE LA PORTE D'ITALIE;75113;2.35987458922;48.8183126989
4016287;LA FOURCHE;70 AVENUE DE CLICHY;75117;2.32515274516;48.8878322228
4016291;RUE DES MOINES;130 AVENUE DE CLICHY;75117;2.32061367928;48.8904469491
6217411;HAUSSMANN - MIROMESNIL;127 BOULEVARD HAUSSMANN;75108;2.31345188162;48.8750865384
4016342;GANNERON;26-28 AVENUE DE CLICHY;75118;2.32672051005;48.8853249392
4009392;SUZANNE LENGLEN;PL DES MARTYRS DE LA RESISTANCE DE LA PORTE DE SEVRES;75115;2.27618204446;48.8335512365
6251763;PLACE D'ITALIE;10 PLACE D'ITALIE;75113;2.35467997588;48.8314984744
4009396;PORTE DE VERSAILLES;FACE 3 AV ERNEST RENAN;75115;2.28736047386;48.8322083047
4009617;GARE MONTPARNASSE;PLACE RAOUL DAUTRY;75115;2.32057475725;48.8419870846
4009642;PASQUIER - ANJOU;82 BOULEVARD HAUSSMANN;75108;2.3252104449;48.8741176785
4009650;PLACE DU GENERAL CATROUX;BOULEVARD MALESHERBES;75117;2.30971443309;48.8830125045
4009652;JOUFFROY - MALESHERBES;147 BOULEVARD MALESHERBES;75117;2.30756035701;48.8847644978
4022887;CONCORDE;10 PLACE DE LA CONCORDE;75108;2.32096176038;48.8670441439
4022970;PEREIRE - MARECHAL JUIN;96 AVENUE NIEL;75117;2.29709498774;48.8840514398
6263536;GAMBETTA;4 PLACE GAMBETTA;75120;2.39896334007;48.8646655979
6263538;PELLEPORT;50 RUE BELGRAND;75120;2.40495698516;48.8645634812
3807603;COLONEL PIERRE AVIA;FACE 29 RUE DU COLONEL PIERRE AVIA;75115;2.27545133911;48.829812011
4016270;LOUVRE - RIVOLI;FACE 6 RUE DE L'AMIRAL DE COLIGNY;75101;2.34057823956;48.8605563228
3811236;CONCORDE;8 PLACE DE LA CONCORDE;75108;2.32113887131;48.8669992312
4016361;AUBER;FACE 8 RUE AUBER;75109;2.32989763833;48.8720330035
7647745;PORTE D'ASNIERES - MARGUERITE LONG;BOULEVARD BERTHIER;75117;2.30341440545;48.8896524346
3811255;RAPP - LA BOURDONNAIS;AVENUE JOSEPH BOUVARD;75107;2.29994880738;48.8571802465
3811261;DUPLEIX;27 RUE DESAIX;75115;2.29208081137;48.8520007519
3811273;BALARD - LECOURBE;103-105 RUE LEBLANC;75115;2.28102560653;48.8363577513
3811284;MADELEINE;19-21 BOULEVARD DE LA MADELEINE;75101;2.32548400595;48.8694173364
3812978;DUROC;65 BOULEVARD DES INVALIDES;75107;2.3164332779;48.8473070445
7676425;CAMILLE FLAMMARION;65 BOULEVARD NEY;75118;2.34023985326;48.8977546321
3813079;BASTILLE;PLACE DE LA BASTILLE;75104;2.36879653248;48.8528140129
3813096;NICOLAI;25 RUE DE WATTIGNIES;75112;2.39435511123;48.8363663225
7714410;PORTE DE CLIGNANCOURT;3 AVENUE DE LA PORTE DE CLIGNANCOURT;75118;2.34400206473;48.8983566161
3813129;BOSQUET - GRENELLE;40 AVENUE BOSQUET;75107;2.30429406175;48.8565613953
3813517;JEAN MOULIN;FACE 139 BOULEVARD BRUNE;75114;2.31900130034;48.8248474977
3813519;PORTE D'ORLEANS;117 BD BRUNE;75114;2.32477300942;48.8235180679
4022902;PORTE MAILLOT - PALAIS DES CONGRES;70 AVENUE DE LA GRANDE ARMEE;75117;2.2851509097;48.8770097923
7691426;PORTE D'ASNIERES - MARGUERITE LONG;FACE 100 BOULEVARD BERTHIER;75117;2.30349618401;48.8896434705
3813533;PORTE D'IVRY;72 BOULEVARD MASSENA;75113;2.36996189791;48.8218964457
4022953;ROND-POINT DES CHAMPS-ELYSEES;FACE 43 AVENUE F.D.ROOSEVELT;75108;2.31030809467;48.8682015793
3887781;MAINE - VAUGIRARD;15-17 BOULEVARD DU MONTPARNASSE;75106;2.31847640839;48.8459772333
3807574;RICHELIEU - 4 SEPTEMBRE;7 RUE DU 4 SEPTEMBRE;75102;2.33818107321;48.8691752559
3887812;PLACE DU 18 JUIN 1940;62 BOULEVARD DU MONTPARNASSE;75115;2.32235784014;48.8442431913
3807591;SEVRES - LECOURBE;FACE 4 BOULEVARD PASTEUR;75115;2.31131421077;48.8449602995
3893359;SAINT-JACQUES - GAY-LUSSAC;29 RUE GAY LUSSAC;75105;2.34238819942;48.8438755236
3807595;ABBE GROULT;188 RUE LECOURBE;75115;2.29610736008;48.8406869374
3893370;PLACE D'ITALIE;211 BOULEVARD VINCENT AURIOL;75113;2.35703488722;48.8309049236
3811227;MAUBEUGE - ROCHECHOUART;29 RUE DE MAUBEUGE;75109;2.34455810367;48.8782432291
3893396;PONT NEUF - QUAI DES GRANDS AUGUSTINS;FACE 57 QUAI DES GRANDS AUGUSTINS;75106;2.34093205447;48.8558379162
3811230;CHAUSSEE D'ANTIN;32 BIS BOULEVARD HAUSSMANN;75109;2.33420282042;48.8728959739
3893413;ASSEMBLEE NATIONALE;286 BOULEVARD SAINT GERMAIN;75107;2.32022787669;48.8617145271
3811246;ALMA - MARCEAU;3 AVENUE MONTAIGNE;75108;2.3023542821;48.8650719135
1719;Saint-François-Xavier;Avenue de Villars;75107;2.3144298646;48.8509825598
3893414;LILLE - UNIVERSITE;231 BOULEVARD SAINT-GERMAIN;75107;2.32180857708;48.8596566272
3811250;TOUR EIFFEL;4 AVENUE DE LA BOURDONNAIS;75107;2.2958738498;48.8603155097
1740;Porte de Choisy;130 boulevard Masséna;75113;2.36496559829;48.8199024462
3893440;PASCAL;28 BOULEVARD ARAGO;75113;2.34779237317;48.8356066168
3811263;RUE ROUELLE;33-35 RUE SAINT CHARLES;75115;2.28866418744;48.8501659622
1744;Porte de la Villette;Cité des Sciences - La Géode - Le Zénith;75119;2.38564423013;48.8975291569
3893471;ROND-POINT DES CHAMPS-ELYSEES;FACE 43 AVENUE F.D.ROOSEVELT;75108;2.31030809467;48.8682015793
3812918;HOTEL DE VILLE;10 RUE SAINT-MARTIN;75104;2.34949940252;48.8576617921
1902;Jaurès;Face au 2 place de Stalingrad;75119;2.37047696877;48.8823280249
1764;Réaumur-Sébastopol;Square Emile Chantemps;75102;2.35262095402;48.8660466696
3893473;MATIGNON - SAINT-HONORE;36 AVENUE MATIGNON;75108;2.31436617406;48.8718692606
3812980;OUDINOT;47 BIS BOULEVARD DES INVALIDES;75107;2.3150976993;48.8497603888
1907;Jussieu;39 rue Liné;75105;2.35480739269;48.8459684322
1746;Porte de Pantin;Avenue Jean Jaurès;75119;2.39242287572;48.888583981
3812993;TOUR EIFFEL;QUAI BRANLY;75107;2.29287800559;48.8593887281
1760;Quatre Septembre;20 rue du Quatre Septembre;75102;2.33632828164;48.8696605722
1864;Louvre-Rivoli;Amiral de Coligny (8 rue de l');75101;2.34097327582;48.8608798576
3812999;LUBECK;18 RUE BOISSIERE;75116;2.29206862129;48.8659941554
1869;Madeleine;Rue De Sèze;75108;2.32461201202;48.8697947152
1661;Ségur;UNESCO - Miollis;75115;2.30726884758;48.8468647021
3813046;RAPP - LA BOURDONNAIS;AVENUE JOSEPH BOUVARD;75107;2.29994880738;48.8571802465
1966;Châtelet;Théâtre du Châtelet;75101;2.34722471106;48.8572036455
1166833;Gare de Lyon;Rue de Bercy;75112;2.37310814755;48.844652151
3813075;SULLY - MORLAND;12 BOULEVARD HENRI IV;75104;2.36307572508;48.851242584
1964;Châtelet;Théâtre du Châtelet;75101;2.34786508758;48.858300056
3749679;CONDORCET;59 RUE DE MAUBEUGE;75109;2.34804653143;48.8793304239
3813118;DUROC;65 BOULEVARD DES INVALIDES;75107;2.3164332779;48.8473070445
3749774;POISSONNIERE - BONNE NOUVELLE;4 BOULEVARD POISSONNIERE;75109;2.3474861878;48.8708464643
3813139;CHARLES DE GAULLE - ETOILE - MAC MAHON;FACE 2 AVENUE MAC MAHON;75117;2.29464949525;48.8750183881
2017;Campo-Formio;106-112 boulevard de l' Hôpital;75113;2.35875209519;48.8355512167
1928;Duroc;bd du Montparnasse;75107;2.31654234477;48.8469925009
3748063;FAIDHERBE - CHALIGNY;206 RUE DU FAUBOURG SAINT ANTOINE;75112;2.38558612392;48.8498425169
3813142;PIERRE DEMOURS;32 AVENUE NIEL;75117;2.29581606801;48.8814896379
2091;Funiculaire Gare haute;Cardinal Dubois (rue du);75118;2.34254223541;48.8855769295
2052;Assemblée Nationale;Angle avec le 239 bd Saint-Germain et la rue de Courty;75107;2.32030969051;48.8614539043
3748092;LA BOULE BLANCHE;55 RUE DU FAUBOURG SAINT ANTOINE;75111;2.37363075374;48.8520127502
3813501;PONT GARIGLIANO - HOPITAL EUROPEEN GEORGE POMPIDOU;BD DU GENERAL MARTIAL VALIN;75115;2.27120741532;48.8378716106
2058;Avron;Terre-plein face au 35 boulevard de Charonne;75111;2.39823914082;48.8511938192
3747936;REUILLY - DIDEROT;28 RUE DE REUILLY;75112;2.38714926579;48.8467591614
3813547;ALEXANDRA DAVID-NEEL;FACE 70 BD SOULT;75112;2.40987238771;48.8435299406
2069;Bir-Hakeim (Grenelle);Tour Eiffel;75115;2.28881010374;48.8543272186
3747906;GARE DU NORD;GARE ROUTIERE;75110;2.35738102934;48.8809738816
3864875;PORTE D'ITALIE-METRO;FACE 164 BOULEVARD MASSENA;75113;2.36050092137;48.8189147547
2232;Jussieu;39 rue Liné;75105;2.35480739269;48.8459684322
3747869;BASTILLE - BEAUMARCHAIS;2 BOULEVARD BEAUMARCHAIS;75111;2.36906955409;48.8538564854
2013;Buttes-Chaumont;28 rue Botzaris;75119;2.38121109974;48.877803956
3747848;DAUMESNIL - FELIX EBOUE;172 AVENUE DAUMESNIL;75112;2.39450865257;48.8397905129
3747844;MAIRIE DU 12E;130 AVENUE DAUMESNIL;75112;2.38851906562;48.8411234001
3887761;JUSSIEU;PLACE JUSSIEU;75105;2.35457597648;48.8462021413
3747868;BASTILLE;RUE DE LYON;75112;2.36954532028;48.8523914015
3887766;PANTHEON;FACE 3 RUE SOUFFLOT;75105;2.34424045764;48.8466885217
3749933;MAIRIE DU 18E - JULES JOFFRIN;FACE 34 RUE HERMEL;75118;2.34520077101;48.8929552675
3887779;RENNES - LITTRE;169-171 RUE DE RENNES;75106;2.32471348238;48.8445490384
2159;Alésia;Place Victor et Hélène Basch;75114;2.32682742005;48.8280660197
2468;Saint-Lazare;Rue de l' Arcade;75108;2.32669527207;48.8754209778
3887811;MAINE - VAUGIRARD;115 RUE DE VAUGIRARD;75115;2.31929387021;48.8447550573
2263;Falguière;138 rue du Cherche-Midi;75115;2.31756467618;48.844323383
2479;Solférino;Rue de Solférino;75107;2.32308924879;48.8585333595
3747831;PAYENNE;25 RUE DES FRANCS BOURGEOIS;75104;2.36196178363;48.8571026384
3893352;PONT NEUF - QUAI DES ORFEVRES;FACE 68 QUAI DES ORFEVRES;75101;2.34138156984;48.8565748712
2373;Poissonnière;Terre-plein face au 96/98 rue La Fayette;75110;2.34938142395;48.8773530953
2441;Saint-Philippe du Roule;69 avenue Franklin D. Roosevelt;75108;2.31076910123;48.8724706658
3893363;BERTHOLLET - VAUQUELIN;70 RUE CLAUDE BERNARD;75105;2.34585990801;48.8404690464
2393;Pelleport;Paul Signac (place, en face du 125 avenue Gambetta);75120;2.40132438054;48.8682233476
3749904;ALMA - MARCEAU;FACE 5 AVENUE MONTAIGNE;75108;2.30310337973;48.8652698527
3893366;LES GOBELINS;26 AVENUE DES GOBELINS;75113;2.35191781479;48.8363880998
2421;Porte de la Chapelle;Rue Raymond Queneau;75118;2.35925506958;48.8979593432
3749898;BOSQUET - GRENELLE;51 AVENUE BOSQUET;75107;2.30463436614;48.8568760492
3893374;NATIONALE;145 BOULEVARD VINCENT AURIOL;75113;2.36259004905;48.8327732945
3442545;PORTE D'ORLEANS-METRO;FACE 41 AV ERNEST REYER;75114;2.32411998201;48.8222507351
2439;Rambuteau;Centre Georges Pompidou;75104;2.35328695987;48.8611933956
3893392;LES GOBELINS;21 AVENUE DES GOBELINS;75105;2.35167298828;48.8372509371
3442438;GAITE;85-87 AVENUE DU MAINE;75114;2.32294510009;48.8379519812
2087;Belleville;Terre-plein face au 1 boulevard de la Villette;75119;2.37673767732;48.8722873206
3749741;RENE FONCK;AVENUE RENE FONCK;75119;2.40902248977;48.8788060137
3893428;GUYNEMER - VAVIN;74 RUE D'ASSAS;75106;2.33202571934;48.8451247851
3343760;La Tour-Maubourg;Les Invalides Tombeau de l'Empereur - Musée de l'Armée;75107;2.30979622583;48.8572278606
2134;Cadet;Terre-plein face au 65 rue La Fayette;75109;2.34334512457;48.875825718
3749754;MANIN;88 RUE DE CRIMEE;75119;2.38620254099;48.8825113355
3893429;GUYNEMER - VAVIN;FACE 80 RUE D'ASSAS;75106;2.33281555578;48.8445945535
2309;Notre-Dame des Champs;Terre-plein face au 112 boulevard Raspail;75106;2.32844448329;48.8447830483
2162;Alma-Marceau;Pont de l'Alma;75116;2.30125141045;48.864298671
3749946;BOULEVARD VICTOR;46 RUE DU HAMEAU;75115;2.28671918599;48.8336909893
3893454;TOLBIAC - BAUDRICOURT;90 RUE DE TOLBIAC;75113;2.36445203184;48.8268320616
2321;Les Gobelins;Manufacture des Gobelins;75113;2.35208111784;48.8361274398
2485;Stalingrad;Bassin de la Villette;75119;2.36735747747;48.8841532631
2526;Rennes;Terre-plein face au 78 boulevard Raspail;75106;2.32802174863;48.8481982688
2211;Gare de Lyon;Rue de Bercy;75112;2.3739114213;48.844472156
3343790;Faidherbe-Chaligny;Hôpital St-Antoine;75111;2.38442877074;48.850067668
2392;Pasteur;183 rue de Vaugirard;75115;2.31266330776;48.8428305421
2397;Pernety;Rue Niepce;75114;2.31790897216;48.8339338198
2423;Porte de Montreuil;Rue d'Avron;75120;2.41045818742;48.8533798778
2261;Exelmans;Hôpital Henry Dunant;75116;2.26014439788;48.8429069785
2520;Saint-Jacques;Terre-plein face au 46 boulevard Saint-Jacques;75114;2.33668289664;48.8329916918
4009397;PORTE DE VERSAILLES;1 AV ERNEST RENAN;75115;2.28726525592;48.8321273762
2513;Voltaire (Léon Blum);Boulevard Voltaire;75111;2.3800362968;48.8576637258
4009640;MADELEINE;11 PLACE DE LA MADELEINE;75108;2.32363099955;48.8702349865
3343338;Boucicaut;Rue Félix Faure;75115;2.28792386733;48.8410253553
3442447;PORTE DIDOT - LYCEE RASPAIL;AVENUE MARC SANGNIER;75114;2.31098377884;48.8252234802
3343793;Montgallet;68 rue de Reuilly;75112;2.39025165316;48.8444030921
3343763;Concorde;Place de la Concorde;75108;2.32036285586;48.8655072215
3442448;PORTE DE VANVES;1 AVENUE MARC SANGNIER;75114;2.30579692297;48.8264355563
3442461;ALESIA - DIDOT;57 RUE DIDOT;75114;2.31953014583;48.8307434709
4016335;OPERA - 4 SEPTEMBRE;49 AVENUE DE L'OPERA;75102;2.33255456838;48.8696065591
4016336;OPERA;8 RUE HALEVY;75109;2.33273148835;48.8717365632
4022884;MUSEE D'ORSAY;1 RUE DE SOLFERINO;75107;2.32396039412;48.8607713252
4022901;ARGENTINE;40 AVENUE DE LA GRANDE ARMEE;75117;2.28883085833;48.8758609715
4022948;INVALIDES;R ROBERT ESNAULT-PELTERIE;75107;2.31460227168;48.8615967541
4022962;FRIEDLAND - HAUSSMANN;177 BOULEVARD HAUSSMANN;75108;2.30563133234;48.8747971261
7013373;PORTE DE FRANCE;FACE 21 RUE ALBERT EINSTEIN;75113;2.38142712593;48.8275010463
7013376;BIBLIOTHEQUE RUE MANN;89-91 AVENUE DE FRANCE;75113;2.37817471152;48.8287245279
7013391;MOULIN DES PRES;164 RUE DE TOLBIAC;75113;2.35303108212;48.8260432099
7013404;ALESIA - JEAN MOULIN;66-68 RUE D'ALESIA;75114;2.32586088717;48.8282366963
3666626;PORTE DE LA CHAPELLE;104 RUE DE LA CHAPELLE;75118;2.35952762718;48.8978154986
3673595;VOLTAIRE - LEON BLUM;136 RUE DE LA ROQUETTE;75111;2.38141213096;48.8578699344
3673635;ROQUETTE - PERE LACHAISE;45-45 BIS RUE DE LA FOLIE REGNAULT;75111;2.38654873356;48.8596564158
7153158;VAN GOGH;16 RUE VAN GOGH;75112;2.37208647707;48.8440592777
3672241;RUE DE PARIS;20 AVENUE BENOIT FRACHON;75120;2.41544365876;48.8539249443
1647;République;Av de la République;75111;2.36358782556;48.8674108288
7176288;LA CONDAMINE;35-37 RUE BOURSAULT;75117;2.31928007606;48.8845691225
7176289;BOULEVARD DES BATIGNOLLES;23-25 RUE CLAPEYRON;75108;2.32357335589;48.8821701004
3740560;PLACE FRANZ LISZT;130 RUE LA FAYETTE;75110;2.35352388242;48.8782782913
3666620;GARE DE L'EST;9 RUE DU 8 MAI 1945;75110;2.35821026231;48.8760666877
3748043;SEINE - BUCI;119 BOULEVARD SAINT GERMAIN;75106;2.33737725298;48.8527103404
3749708;PEREIRE - PORTE MAILLOT;AV DES TERNES;75117;2.2879276988;48.8799588001
3747940;RUE DE LA GARE DE REUILLY;FACE117BIS RUE DE REUILLY;75112;2.39353010737;48.8414357014
4024525;FLEURISTE MUNICIPAL;AVENUE DE LA PORTE D'AUTEUIL;75116;2.25163916034;48.8480779783
4024536;ETANG DE L'ABBAYE;ROUTE DE L'ABBAYE;75116;2.2330942063;48.8671345364
3749903;BOSQUET - RAPP;2 AVENUE BOSQUET;75107;2.3021115835;48.8613780267
3747842;CHARLES BOSSUT;102 AVENUE DAUMESNIL;75112;2.38390495922;48.8430486308
3666671;LA FAYETTE - DUNKERQUE;33-35 RUE DE SAINT-QUENTIN;75110;2.35571806124;48.8794732784
3666676;GARE DU NORD;183 RUE DU FAUBOURG SAINT-DENIS;75110;2.35791253463;48.8811535357
3681830;PORTE MOLITOR;AVENUE DE LA PORTE MOLITOR;75116;2.25540178688;48.8454832336
5138199;ALESIA - GENERAL LECLERC;96 AVENUE DU GENERAL LECLERC;75114;2.32626955218;48.8268885881
3765304;CHOISY - TOLBIAC;118 RUE DE TOLBIAC;75113;2.36110319854;48.8263744094
4472763;BOULAY;177 AVENUE DE CLICHY;75117;2.31576072118;48.8929446076
4473172;PORTE MAILLOT - PERSHING;11 BOULEVARD PERSHING;75117;2.28401632346;48.8805862253
3687418;RENNES - D'ASSAS;97-99 RUE DE RENNES;75106;2.32902932321;48.8491420292
3685860;CHATEAU DE VINCENNES;PISTE GARE ROUTIERE;75112;2.44079723454;48.8442170813
5221800;PORTE D'ORLEANS - ERNEST REYER;1 AVENUE DE LA PORTE DE MONTROUGE;75114;2.32313969055;48.8233291443
3685859;CHATEAU DE VINCENNES;13 AVENUE DE NOGENT;75112;2.44131420563;48.8439829549
5231606;VOLTAIRE - LEON BLUM;PLACE LEON BLUM;75111;2.38067666525;48.857915142
5231612;GARE DE LYON;179 RUE DE BERCY;75112;2.37328450012;48.8436904326
5231617;BASFROI;150 AVENUE LEDRU ROLLIN;75111;2.37869974008;48.8554622769
3687094;PONT ROYAL - QUAI VOLTAIRE;QUAI ANATOLE FRANCE;75107;2.32797875461;48.8601695497
3687096;MUSEE D'ORSAY;QUAI ANATOLE FRANCE;75107;2.32570386716;48.860951255
